code_suas,municipio,cod_ibge,uf,nome_centro,tipo_centro,endereco,telefone,data_abertura,fonte_centros,fonte_geocode,lon,lat
51061700687,Nova Nazaré,5106174,MT,CRAS CENTRO DE REFERENCIA DE ASSISTENCIA SOCIAL,CRAS,"01 ESQUINA COM A RUA FREI AUGUSTINE, 0 - CENTRO, Nova Nazaré - MT, 78638000",6634671118,26/04/2004,MDS,Google,-51.7993218,-13.9882308
26139006674,Serra Talhada,2613909,PE,CRAS MUTIRÃO,CRAS,"01, LOTE 27, 27 - MUTIRÃO, Serra Talhada - PE, 56900000",8796263420,01/05/2008,MDS,Google,-38.2885167,-7.9747877
29071020255,Carinhanha,2907103,BA,CRAS RURAL 2,CRAS,"02 DE JULHO, 0 - CENTRO, Carinhanha - BA, 46445000",7734852828,01/05/2010,MDS,Google,-43.76801,-14.3024774
29226502809,Nordestina,2922656,BA,CRAS CAJUEIRO,CRAS,"02 DE JULHO, 440 - CENTRO, Nordestina - BA, 48870000",7536502300,01/01/2004,MDS,Google,-39.4297427,-10.8247619
21021504425,Brejo de Areia,2102150,MA,CRAS EDUARDO BARBOSA DA SILVA,CRAS,"02 DE NOVEMBRO, 0 - Centro, Brejo de Areia - MA, 65315000",9836731148,01/07/2007,MDS,Google,-45.5826417,-4.3349476
15060020051,Prainha,1506005,PA,CRAS - URUARA,CRAS,"02 de Julho, 0 - ZONA RURAL, Prainha - PA, 68130000",93984126601,13/10/2010,MDS,Google,-53.5635637,-2.1074872
17150030303,Nova Rosalândia,1715002,TO,CRAS - CENTRO DE REFERENCIA DE ASSISTENCIA SOCIAL DE NOVA ROSALANDIA,CRAS,"03 DE MAIO, 0 - CENTRO, Nova Rosalândia - TO, 77495000",6335201207,01/02/2010,MDS,Google,-49.0009403,-10.5547271
53001002776,Brasília,5300108,DF,CRAS PARANOÁ,CRAS,"03 ÁREA ESPECIAL 07, 0 - PARANOÁ, Brasília - DF, 71570301",6133695262,01/11/2004,MDS,Google,-47.7799002,-15.7757162
51028506053,Castanheira,5102850,MT,CRAS RAINHA DAS ÁRVORES DA AMAZONIA,CRAS,"04 DE JULHO, 1 - CENTRO, Castanheira - MT, 78345000",6635811660,01/06/2007,MDS,Google,-58.60903199999999,-11.1369991
51051706501,Juruena,5105176,MT,CRAS,CRAS,"04 DE JULHO, 1 - PARQUE DAS ARARAS, Juruena - MT, 78340000",6635531360,01/11/2007,MDS,Google,-58.49540289999999,-10.3275228
25031000141,Cabaceiras,2503100,PB,CENTRO DE REFERENCIA DE ASSISTENCIA SOCIAL DE CABACEIRAS -PB,CRAS,"04 DE JUNHO, 415 - CENTRO, Cabaceiras - PB, 58480000",8333561179,01/03/2007,MDS,Google,NA,NA
22097504840,São Gonçalo do Gurguéia,2209757,PI,CRAS FAMILIA ACOLHEDORA,CRAS,"04 DE OUTUBRO, 0 - CENTRO, São Gonçalo do Gurguéia - PI, 64993000",8935610019,05/05/2005,MDS,Google,-45.3035955,-10.0307118
26047004502,Correntes,2604700,PE,CRAS CASA DAS FAMÍLIAS,CRAS,"04 de Outubro, 57 - CENTRO, Correntes - PE, 55315000",8737721177,01/11/2005,MDS,Google,-36.3298771,-9.127263899999999
27055000070,Murici,2705507,AL,CRAS,CRAS,"05 DE JULHO, 159 - CAMPO GRANDE, Murici - AL, 57820000",8232861434,01/05/2007,MDS,Google,-54.6201211,-20.4697105
13013005117,Codajás,1301308,AM,CRAS CODAJAS,CRAS,"05 DE SETEMBRO, 592 - CENTRO, Codajás - AM, 69450000",92992098326,16/10/2008,MDS,Google,-62.06102250000001,-3.8400079
33027035339,Maricá,3302700,RJ,CRAS  SANTA PAULA,CRAS,"05 LOTE 01 A2 QUADRA 19, 0 - INOÃ, Maricá - RJ, 24900000",2126373648,02/01/2012,MDS,Google,-42.9660207,-22.9342809
33027035337,Maricá,3302700,RJ,CRAS INOÃ,CRAS,"05 Lote  01 Quadra 19, 0 - Inoã, Maricá - RJ, 24940550",2126366532,02/01/2012,MDS,Google,-42.9660207,-22.9342809
52223001749,Vila Propício,5222302,GO,CENTRO DE REFERENCIA DE ASSISTENCIA SOCIAL,CRAS,"05 QD 28 LOTE 241 S/N, 0 - CENTRO, Vila Propício - GO, 76393000",6233200109,01/01/2005,MDS,Google,-48.7995122,-15.1998705
26012036509,Arcoverde,2601201,PE,CRAS Cidade Jardim,CRAS,"05 de Julho, 136 - Cidade Jardim, Arcoverde - PE, 56500000",8738212458,06/06/2012,MDS,Google,-37.0658578,-8.4312495
22034015165,Dom Expedito Lopes,2203404,PI,CRAS - Dom Expedito Lopes,CRAS,"05 de abril, 551 - Centro, Dom Expedito Lopes - PI, 64620000",89988217167,09/08/2005,MDS,Google,-41.6456793,-6.958933099999999
26136020100,São José do Egito,2613602,PE,CRAS  SÃO JOÃO,CRAS,"06 de Janeiro, 11 - Centro, São José do Egito - PE, 56700000",8738441165,01/06/2010,MDS,Google,-37.2746574,-7.4686612
53001002882,Brasília,5300108,DF,CRAS SOBRADINHO,CRAS,"06 ÁREA ESPECIAL 3 S/N, 0 - SOBRADINHO, Brasília - DF, 73025060",6134871780,01/11/2004,MDS,Google,-47.8688424,-15.6971376
21122006545,Timon,2112209,MA,CRAS CIDADE NOVA- CENTRO DE REFERENCIA DE ASSISTENCIA SOCIAL,CRAS,"06, SN, 0 - CIDADE NOVA I, Timon - MA, 65633590",9932125430,01/07/2008,MDS,Google,-42.8263879,-5.120845999999999
53001002909,Brasília,5300108,DF,CRAS VARJÃO,CRAS,"07 CONJUNTO D, 0 - VARJÃO, Brasília - DF, 71540400",6134688090,27/03/2009,MDS,Google,-47.877177,-15.710407
21020300264,Bom Jesus das Selvas,2102036,MA,CENTRO DE REFERÊNCIA DA ASSISTÊNCIA SOCIAL - CRAS,CRAS,"07 DE SETEMBRO, 0 - CENTRO, Bom Jesus das Selvas - MA, 65395000",98989286396,01/01/2006,MDS,Google,-46.670534,-4.5457995
51067010596,Ponte Branca,5106703,MT,CRAS - CENTRO DE REFERENCIA DA ASSISTÊNCIA SOCIAL,CRAS,"07 DE SETEMBRO, 450 - CENTRO, Ponte Branca - MT, 78610000",6634661354,01/01/2008,MDS,Google,NA,NA
22032710115,Curral Novo do Piauí,2203271,PI,CRAS -Centro Referência de Assistencia Social-,CRAS,"07 de Setembro, 0 - Centro, Curral Novo do Piauí - PI, 64595000",8994444404,01/06/2006,MDS,Google,-40.9008066,-7.8329127
52067015434,Damianópolis,5206701,GO,CRAS DAMIANOPOLIS,CRAS,"07 de Setembro, 139 - CENTRO, Damianópolis - GO, 73980000",6234451208,01/07/2010,MDS,Google,-46.1900242,-14.5508222
25051012281,Cuité,2505105,PB,CRAS JOANA DARC DA FONSECA,CRAS,"07 de Setembro, 307 - CENTRO, Cuité - PB, 58175000",8333722385,18/05/2009,MDS,Google,-36.1558519,-6.481629499999999
51005000728,Alto Paraguai,5100508,MT,CASA DA FAMILIA,CRAS,"07 de Setembro, 728 - Centro, Alto Paraguai - MT, 78410000",6533961663,01/04/2007,MDS,Google,-56.6962857,-14.785915899999999
25064004837,Gurinhém,2506400,PB,Casa da Família,CRAS,"07 de setembro, 0 - Centro, Gurinhém - PB, 58356000",8332851136,01/04/2008,MDS,Google,-35.4265548,-7.1234096
43191202669,São Martinho da Serra,4319125,RS,CRAS Acordar para viver.,CRAS,"07 de setembro, 1181 - Centro, São Martinho da Serra - RS, 97190000",5532771020,01/12/2006,MDS,Google,-53.8671868,-29.4844248
29333020597,Vitória da Conquista,2933307,BA,CRAS 3 - PEDRINHAS,CRAS,"08 DE MAIO, 354 - CRUZEIRO, Vitória da Conquista - BA, 45005056",7734215526,10/06/2010,MDS,Google,-40.8339762,-14.8457569
21012000735,Bacabal,2101202,MA,CRAS 1 - LAR DAS FAMILIAS,CRAS,"09 Qd 33, 0 - Vila Frei Solano, Bacabal - MA, 65700000",9936211201,01/06/2007,MDS,Google,-44.797088,-4.209186
29186032561,Jussiape,2918605,BA,CRAS - CENTRO DE REFERENCIA DE ASSISTENCIA SOCIAL DE JUSSIAPE,CRAS,"09 de julho, 0 - Centro, Jussiape - BA, 46670000",7734142523,28/03/2011,MDS,Google,-41.5918162,-13.5132947
35439009250,Rio Claro,3543907,SP,CRAS - Região Mãe Preta,CRAS,"1 - MP, 159 - MÃE PRETA, Rio Claro - SP, 13506160",1935249954,12/09/2014,MDS,Google,-47.5436209,-22.3768513
43214512259,Teutônia,4321451,RS,CRAS - CENTRO DE REFERÊNCIA DA ASSISTÊNCIA SOCIAL - CASA DA FAMILIA,CRAS,"1 Leste, 2280 - Centro Administrativo, Teutônia - RS, 95890000",5137628377,01/04/2009,MDS,Google,-51.8127447,-29.4835388
21008305116,Apicum-Açu,2100832,MA,CENTRO DE REFERÊNCIA DE ASSISTÊNCIA SOCIAL,CRAS,"1, 0 - NOVO APICUM, Apicum-Açu - MA, 65275000",98984897347,01/08/2008,MDS,Google,-45.0933497,-1.5056652
33025004098,Magé,3302502,RJ,CRAS VILA INHOMIRIM II,CRAS,"1, 0 - Parque Sayonara, Magé - RJ, 25935010",2127396356,01/08/2004,MDS,Google,-43.1867094,-22.5958553
17161038582,Paraíso do Tocantins,1716109,TO,CRAS  Setor Oeste,CRAS,"1, 0 - Setor Oeste, Paraíso do Tocantins - TO, 77600000",6336022735,15/08/2016,MDS,Google,-48.8807199,-10.1789319
52177030048,Pontalina,5217708,GO,CRAS João José de Oliveira (Tio João Preto),CRAS,"1, 0 - Vila Paulina, Pontalina - GO, 75620000",6434711139,30/04/2010,MDS,Google,-49.44939170000001,-17.5229691
21112038590,São José de Ribamar,2111201,MA,CRAS - MAIOBA,CRAS,"1, 1 - TRIZIDELA DA MAIOBA, São José de Ribamar - MA, 65110000",98988355771,31/08/2016,MDS,Google,-44.1851658,-2.5338023
14006003866,São Luiz,1400605,RR,CRAS CENTRO DE REFERENCIA DE ASSISTENCIA SOCIAL,CRAS,"1, 1 - mortbatlantida, São Luiz - RR, 69370000",9599042068,01/01/2005,MDS,Google,-60.1647697,0.8187673999999999
21113002412,São Luís,2111300,MA,CRAS BEQUIMÃO / VILA PALMEIRA,CRAS,"1, 10 - BEQUIMÃO, São Luís - MA, 65000000",98988650269,01/10/2005,MDS,Google,-44.2150001,-2.5002943
21105034417,São Bento,2110500,MA,CRAS III SEM FRONTEIRAS  SÃO LOURENÇO,CRAS,"1, 44 - SÃO LOURENÇO, São Bento - MA, 65235000",98987010817,11/11/2011,MDS,Google,-45.0513189,-22.12517
35499515070,São Lourenço da Serra,3549953,SP,CRAS - Centro de Referencia de Assistencia Social,CRAS,"10 DE AGOSTO, 55 - Centro, São Lourenço da Serra - SP, 6890000",1146862461,02/01/2010,MDS,Google,-46.9435362,-23.8530132
21053002043,Imperatriz,2105302,MA,CENTRO DE REFERENCIA DE ASSISTENCIA SOCIAL PARQUE LÚCIA,CRAS,"10 S/N, 0 - SANTA LUCIA, Imperatriz - MA, 65900000",99991726121,01/05/2007,MDS,Google,-47.4790966,-5.5205551
15055315117,Parauapebas,1505536,PA,CRAS - Centro de Referência de Assistência Social Rio Verde,CRAS,"10 de Maio, 0 - Rio Verde, Parauapebas - PA, 68515000",9433467266,01/12/2010,MDS,Google,-49.901718,-6.0785011
28072006171,Siriri,2807204,SE,CRAS VIVALDO MENEZES SANTOS,CRAS,"10 de Novembro, 115 - CENTRO, Siriri - SE, 49630000",7932971551,01/01/2008,MDS,Google,-37.1134048,-10.5969214
52045038168,Caldas Novas,5204508,GO,CRAS -CENTRO DE REFERENCIA DE ASSISTÊNCIA SOCIAL,CRAS,"10, 0 - SETOR LAGO DAS BRISAS, Caldas Novas - GO, 75690000",6434543552,21/10/2011,MDS,Google,-48.9080702,-18.2594776
33063003451,Volta Redonda,3306305,RJ,CRAS Siderlândia,CRAS,"10, 20 - SIDERLÂNDIA, Volta Redonda - RJ, 27273290",2433391951,01/01/2006,MDS,Google,-44.1349903,-22.5199833
52086001747,Goianésia,5208608,GO,CRAS - Centro de Refencia de Assistencia Social,CRAS,"10, 453 - Setor Sul, Goianésia - GO, 76380000",6233899429,01/09/2001,MDS,Google,-49.1143369,-15.3333103
23044002610,Fortaleza,2304400,CE,CRAS JOÃO PAULO II,CRAS,"10, 75 - JANGURUSSU, Fortaleza - CE, 60863630",8534885893,01/12/2005,MDS,Google,-38.5024525,-3.8448831
23076534641,Maracanaú,2307650,CE,CRAS  ACARACUZINHO,CRAS,"101, 172 - Conj. Acaracuzinho, Maracanaú - CE, 61920020",8533833536,03/10/2011,MDS,Google,-38.6107301,-3.8503267
23044014825,Fortaleza,2304400,CE,CRAS CONJUNTO ESPERANÇA,CRAS,"103, 195 - CONJUNTO ESPERANÇA, Fortaleza - CE, 60763520",8534848115,03/03/2008,MDS,Google,-38.5859399,-3.808151
21044004912,Gonçalves Dias,2104404,MA,CRAS I,CRAS,"11 DE AGOSTO, 0 - NOVO GONCALVES DIAS, Gonçalves Dias - MA, 65755000",9981088049,01/12/2008,MDS,Google,-44.2995891,-5.1545778
26116004486,Recife,2611606,PE,CRAS Totó,CRAS,"11 de Agosto, s/n, 0 - Totó, Recife - PE, 50791480",8132494464,01/01/2003,MDS,Google,-34.96842300000001,-8.0812083
21029004132,Carutapera,2102903,MA,CENTRO DE REFERENCIA DA ASSISTENCIA SOCIAL,CRAS,"11 de maio, 0 - CENTRO, Carutapera - MA, 65295000",9833941342,01/11/2005,MDS,Google,-46.0213621,-1.2025716
52119038404,Jataí,5211909,GO,CRAS MAURO BENTO,CRAS,"11, 614 - MAURO BENTO, Jataí - GO, 75806510",6436310621,05/02/2015,MDS,Google,-51.7208025,-17.8569421
23055001678,Iguatu,2305506,CE,CRAS ANTONIO BEZERRA DE MELO,CRAS,"12 de Outubro, s/n, 22 - Paraná, Iguatu - CE, 63500000",88994446247,01/08/2005,MDS,Google,-39.2995674,-6.3527961
33039502732,Pinheiral,3303955,RJ,CRAS I,CRAS,"12 de outubro, 126 - Parque Mayra, Pinheiral - RJ, 27197000",2433565689,02/01/2005,MDS,Google,-44.0251002,-22.4903441
23076538444,Maracanaú,2307650,CE,CRAS TIMBÓ,CRAS,"125, 510 - Timbó, Maracanaú - CE, 61936280",8530148061,12/10/2015,MDS,Google,-38.6088747,-3.8773278
23037020675,Caucaia,2303709,CE,CRAS PERPÉTUA MAGALHÃES - METRÓPOLE,CRAS,"127, 118 - NOVA METRÓPOLE, Caucaia - CE, 61600000",8533421877,01/07/2010,MDS,Google,-38.6532692,-3.7665117
29240006598,Paulo Afonso,2924009,BA,CRAS BTN I,CRAS,"13 DE MAIO - PRAÇA CEU, 0 - TANCREDO NEVES I, Paulo Afonso - BA, 48600000",7538289400,01/10/2008,MDS,Google,-38.21901039999999,-9.4354082
22027215119,Cocal dos Alves,2202729,PI,CRAS CENTRO DE REFERENCIA DE ASSISTENCIA SOCIAL,CRAS,"13 DE MAIO, 66 - CENTRO, Cocal dos Alves - PI, 64238000",8633310059,30/10/2009,MDS,Google,-41.44320570000001,-3.6018811
52036002477,Brazabrantes,5203609,GO,CRAS - Centro de Referência de Assistência Social -,CRAS,"13 QD-06 LT-14, 0 - SETOR ANANIAS, Brazabrantes - GO, 75440000",6235291243,01/05/2005,MDS,Google,-49.3754694,-16.404938
15065804511,Santa Maria das Barreiras,1506583,PA,CRAS  CASA DE TABUA,CRAS,"13 de Maio, 0 - CENTRO, Santa Maria das Barreiras - PA, 68565000",9433191335,01/01/2007,MDS,Google,-53.8047376,-29.6882192
50069003122,Porto Murtinho,5006903,MS,CENTRO DE REFERÊNCIA DE ASSISTÊNCIA SOCIAL DE PORTO MURTINHO/MS,CRAS,"13 de maio, 0 - CENTRO, Porto Murtinho - MS, 79280000",6732872785,01/02/2005,MDS,Google,-57.8873596,-21.7020313
26009001355,Amaraji,2600906,PE,CRAS Amaraji,CRAS,"13 de maio, 25 - centro, Amaraji - PE, 55515000",81999999999,01/11/2005,MDS,Google,-35.4524341,-8.379105899999999
35538006143,Taquarituba,3553807,SP,13 de Maio,CRAS,"13 de maio, 560 - Centro, Taquarituba - SP, 18740000",1437623420,01/10/2007,MDS,Google,-49.2428499,-23.5337499
13026034697,Manaus,1302603,AM,CRAS Alvorada III,CRAS,"13, 0 - Alvorada III, Manaus - AM, 69042125",9232392003,01/08/2010,MDS,Google,-60.0575392,-3.0743579
21113020530,São Luís,2111300,MA,CRAS COHAB /FORQUILHA,CRAS,"13, 0 - COHAB ANIL IV, São Luís - MA, 65053330",9888650271,02/05/2010,MDS,Google,-44.2130198,-2.5500273
35376030518,Peruíbe,3537602,SP,CRAS VILA ERMINDA,CRAS,"13, 610 - ANTONIO NOVAES, Peruíbe - SP, 11750000",1334584642,28/12/2009,MDS,Google,-46.9586528,-24.255307
15061606635,Rio Maria,1506161,PA,CRAS -   TEREZA MARIA DE PAULA,CRAS,"13, 835 - CASCALHEIRA, Rio Maria - PA, 68530000",94991911832,01/02/2008,MDS,Google,-50.0462317,-7.3144325
22015704847,Belém do Piauí,2201572,PI,CRAS - CENTRO DE REFERENCIA DA ASSISTÊNCIA SOCIAL,CRAS,"14 DE DEZEMBRO, 0 - CENTRO, Belém do Piauí - PI, 64678000",8934410060,01/09/2008,MDS,Google,-40.9788775,-7.422094800000001
52147006334,Nova América,5214705,GO,CENTRO DE REFERÊNCIA DE ASSISTÊNCIA SOCIAL,CRAS,"14 DE NOVEMBRO ESQUINA /COM TIRADENTE, 0 - JARDIM DOS ALPES, Nova América - GO, 76345000",6233456144,01/08/2008,MDS,Google,-49.9655318,-16.4705961
52137705040,Montividiu do Norte,5213772,GO,CRAS - CENTRO DE REFERENCIA ASSISTENCIA SOCIAL DE MONTIVIDIU DO NORTE,CRAS,"14, 0 - CENTRO, Montividiu do Norte - GO, 76465000",6233846118,01/04/2009,MDS,Google,-48.7593128,-13.1368288
15054904395,Palestina do Pará,1505494,PA,CENTRO DE REFERENCIA DA ASSISTENCIA SOCIAL,CRAS,"14, 0 - cidade nova, Palestina do Pará - PA, 68535000",9433511164,01/04/2007,MDS,Google,-48.4050987,-1.3572662
35439034415,Rio Claro,3543907,SP,CRAS - Região Panorama,CRAS,"14, 2763 - Jardim Wenzel, Rio Claro - SP, 13504257",1935235112,05/11/2010,MDS,Google,-47.57604329999999,-22.3990702
52207002232,Sítio d'Abadia,5220702,GO,CRAS DONA DIRCE VIEIRA REIS - TIA DIRCE,CRAS,"15 DE AGOSTO, 15 - CENTRO, Sítio d'Abadia - GO, 73990000",61996259709,01/01/2007,MDS,Google,-46.2536417,-14.8043306
21062003947,Luís Domingues,2106201,MA,CENTRO DE REFERÊNCIA DE ASSISTÊNCIA SOCIAL DE LUÍS DOMINGUES,CRAS,"15 DE NOVEMBRO, 0 - BORBOLETAL, Luís Domingues - MA, 65290000",98984503127,01/12/2006,MDS,Google,-45.8659561,-1.3429723
17203012639,São Sebastião do Tocantins,1720309,TO,CRAS,CRAS,"15 DE NOVEMBRO, 0 - CENTRO, São Sebastião do Tocantins - TO, 77990000",6334261208,08/06/2009,MDS,Google,-48.33896439999999,-5.230121899999999
43204509528,Sério,4320453,RS,CRAS CENTRO DE REFERENCIA DE ASSISTENCIA SOCIAL DO MUNICIPIO DE SERIO/RS,CRAS,"15 DE NOVEMBRO, 318 - CENTRO, Sério - RS, 95918000",5137701062,10/02/2009,MDS,Google,-52.2689235,-29.3853089
35242001727,Jaborandi,3524204,SP,CASA DA FAMILIA,CRAS,"15 DE NOVEMBRO, 516 - SÃO BENEDITO, Jaborandi - SP, 14775000",1733471863,01/07/2006,MDS,Google,-48.4187846,-20.6383449
52191002537,Santa Bárbara de Goiás,5219100,GO,CRAS - CORAÇÃO DE MÃE - CASA DAS FAMÍLIAS,CRAS,"15 ESQ. C/ AVENIDA CASTELO BRANCO, 1 - CENTRAL, Santa Bárbara de Goiás - GO, 75390000",6236831411,01/01/2007,MDS,Google,-49.6912218,-16.5710827
26007020215,Aliança,2600708,PE,CRAS - Unidade Caueiras,CRAS,"15 de Agosto, 50 - Caueiras, Aliança - PE, 55890000",81992072176,10/05/2010,MDS,Google,-35.23088,-7.5976554
43145501705,Pirapó,4314555,RS,CENTRO DE REFERENCIA DE ASSISTENCIA SOCIAL/ CRAS,CRAS,"15 de Novembro, 1508 - CENTRO, Pirapó - RS, 97885000",5533511800,01/12/2005,MDS,Google,-55.2038278,-28.0806675
15026005119,Colares,1502608,PA,CRAS FLOR DO CAMPO,CRAS,"15 de novembro, 0 - CENTRO, Colares - PA, 68785000",9134617172,01/06/2008,MDS,Google,-48.2826927,-0.9334089
21094004564,Primeira Cruz,2109403,MA,CRAS - PRIMEIRA CRUZ,CRAS,"16 de Outubro, 0 - CENTRO, Primeira Cruz - MA, 65190000",9833681302,01/05/2006,MDS,Google,-43.4420795,-2.5102051
24146001857,Upanema,2414605,RN,CRAS  LADEIRA DO SOL,CRAS,"16 de SETEMBRO, 8 - Ladeira do Sol, Upanema - RN, 59670000",8433250009,01/08/2005,MDS,Google,-37.2620634,-5.6388241
43046004634,Canoas,4304606,RS,CRAS NORDESTE - GUAJUVIRAS,CRAS,"17  de Abril, 28 - Guajuviras, Canoas - RS, 92415000",5134672062,08/10/2009,MDS,Google,-51.1382246,-29.8991191
31333020552,Itaobim,3133303,MG,CRAS II,CRAS,"17 de Julho, 247 - Vila Nova, Itaobim - MG, 39625000",3337341457,07/07/2011,MDS,Google,-41.5612423,-16.5925818
42139032771,Presidente Castello Branco,4213906,SC,CRAS Semeando o Futuro,CRAS,"17 de fevereiro, 374 - Centro, Presidente Castello Branco - SC, 89745000",4934571055,24/05/2011,MDS,Google,-51.8059835,-27.2224764
28048003648,Nossa Senhora do Socorro,2804805,SE,CRAS PROFESSORA MARIA LUIZA DANTAS SANTOS,CRAS,"17, 0 - CONJUNTO MARCOS FREIRE I, Nossa Senhora do Socorro - SE, 49160000",7932565804,01/03/2006,MDS,Google,-37.0943571,-10.8604104
51084020690,Várzea Grande,5108402,MT,CRAS REGIONAL OESTE SÃO MATHEUS,CRAS,"178, 14 - Jardim Eldorado, Várzea Grande - MT, 78100000",6536883673,20/07/2010,MDS,Google,-56.18885059999999,-15.6623176
35064006210,Bilac,3506409,SP,CRAS,CRAS,"18 DE ABRIL, 119 - PRÓXIMO AO CENTRO, Bilac - SP, 16210000",1836591611,01/06/2008,MDS,Google,-50.47334069999999,-21.4065916
52001702309,Água Fria de Goiás,5200175,GO,CRAS CASA DA FAMILIA,CRAS,"18 QUADRA 30, 4 - CENTRO, Água Fria de Goiás - GO, 73780000",6234641341,01/01/2005,MDS,Google,-47.78346579999999,-14.9793902
52039615271,Buritinópolis,5203962,GO,CRAS - BURITINÓPOLIS,CRAS,"18 quadra 56, 0 - SETOR NOVO BURITI, Buritinópolis - GO, 73975000",6234061173,18/05/2010,MDS,Google,-46.43019100000001,-14.4581356
21012506001,Bacabeira,2101251,MA,CRAS  - CENTRO DE REFERÊNCIA DE ASSISTÊNCIA SOCIAL,CRAS,"19 DE JUNHO, 0 - CIDADE NOVA, Bacabeira - MA, 65143000",9833468045,01/05/2007,MDS,Google,-42.8357594,-5.1232337
15008006554,Ananindeua,1500800,PA,CRAS GUANABARA,CRAS,"19 de Março, 251 - GUANABARA, Ananindeua - PA, 67000000",9132350258,01/09/2008,MDS,Google,-48.4206762,-1.3982241
13035012541,Pauini,1303502,AM,CRAS Chico de Castro,CRAS,"19 de março, 0 - Cidade Alta, Pauini - AM, 69860000",97991689241,01/01/2009,MDS,Google,-67.0005795,-7.712536
29184002855,Juazeiro,2918407,BA,CRAS CENTRO DE REFERENCIA DE ASSISTENCIA SOCIAL DO JOAO PAULO II,CRAS,"19, 0 - JOAO PAULO II, Juazeiro - BA, 48900000",7436112212,01/08/2005,MDS,Google,-40.4990836,-9.4718339
21014002968,Balsas,2101400,MA,CRAS CENTRO DE REFERENCIA DA ASSISTENCIA SOCIAL 2,CRAS,"19, 0 - SÃO FELIX, Balsas - MA, 65800000",9935412197,12/08/2010,MDS,Google,-46.04580079999999,-7.514283900000001
35072039044,Borá,3507209,SP,"CRAS - Manoel Galo, Borá- SP",CRAS,"1° de Janeiro, 171 - centro, Borá - SP, 19740000",1833671219,06/08/2018,MDS,Google,NA,NA
22106204241,Sebastião Barros,2210623,PI,CRAS CASA DE ACOLHIMENTO,CRAS,"1º DE JANEIRO, 22 - CENTRO, Sebastião Barros - PI, 64985000",8935640081,01/07/2006,MDS,Google,-44.8341208,-10.8174037
29156006685,Itamaraju,2915601,BA,CRAS - Centro de Referencia de Assistência Social  - II,CRAS,"1º DE MAIO S/N, 0 - BELA VISTA, Itamaraju - BA, 45836000",7332945777,01/07/2008,MDS,Google,-39.5355102,-17.0437328
29228502879,Nova Redenção,2922854,BA,CRAS Centro de Referência da Assistência Social,CRAS,"1º DE MAIO, 0 - CENTRO, Nova Redenção - BA, 46835000",7533452454,01/11/2005,MDS,Google,NA,NA
15061804508,Rondon do Pará,1506187,PA,CRAS RECANTO AZUL,CRAS,"1º DE MAIO, 287 - RECANTO AZUL, Rondon do Pará - PA, 68638000",9433261437,12/03/2010,MDS,Google,-48.0673882,-4.7783093
25112006760,Pedras de Fogo,2511202,PB,CRAS - Centro de Referência de Assistência Social,CRAS,"1º DE MAIO, S/N, 0 - MANGUEIRA, Pedras de Fogo - PB, 58328000",8136351799,26/11/2006,MDS,Google,-35.1164227,-7.401021800000001
35564005071,Vargem Grande do Sul,3556404,SP,CRAS,CRAS,"1º de Maio, 359 - Centro, Vargem Grande do Sul - SP, 13880000",1936419028,29/07/2009,MDS,Google,-46.8972762,-21.8304731
31658033033,Senador José Bento,3165800,MG,CRAS Dona Catarina Floriano de Souza,CRAS,"1º de Março, 116 - Centro, Senador José Bento - MG, 37586000",3534261212,16/05/2011,MDS,Google,-46.180833,-22.1650951
31323031163,Itaipé,3132305,MG,CRAS,CRAS,"1º de maio, 82 - SÃO PEDRO, Itaipé - MG, 39815000",3335321504,01/08/2005,MDS,Google,-41.6410914,-17.3338793
29301035409,Senhor do Bonfim,2930105,BA,CRAS QUICÉ,CRAS,"2 DE JULHO, 106 - DISTRITO, Senhor do Bonfim - BA, 48970000",7435444127,13/03/2012,MDS,Google,-40.1874049,-10.4632166
29274020695,Salvador,2927408,BA,CRAS BOM JESUS,CRAS,"2 de Julho, 0 - ILHA DE BOM JESUS, Salvador - BA, 42510000",7132973010,19/05/2011,MDS,Google,-38.497129,-12.977278
29280502620,Santa Luzia,2928059,BA,CRAS Centro de referencia da assistencia social,CRAS,"2 de julho, 477 - centro, Santa Luzia - BA, 45865000",7336281309,22/03/2007,MDS,Google,-39.3319926,-15.4300831
23076535803,Maracanaú,2307650,CE,CRAS PIRATININGA,CRAS,"2, 0 - Novo Maracanau, Maracanaú - CE, 61905440",8533833518,01/06/2012,MDS,Google,-38.623479,-3.8648992
52199030318,São Francisco de Goiás,5219902,GO,CRAS - CENTRO DE REFERÊNCIA DA ASSISTÊNCIA SOCIAL DO MUNICÍPIO DE SÃO FRANCISCO,CRAS,"2, 0 - Vila Souzania, São Francisco de Goiás - GO, 75490000",6233057723,13/10/2009,MDS,Google,-49.0808037,-16.178058
35020038334,Analândia,3502002,SP,CRAS DE ANALÂNDIA,CRAS,"2, 30 - CENTRO, Analândia - SP, 13550000",1935660506,08/05/2015,MDS,Google,-47.6626925,-22.1292695
52054515567,Cezarina,5205455,GO,CRAS CENTRO DE REFERENCIA DE ASSISTÊNCIA SOCIAL - JARDIM DAS ACÁCIAS,CRAS,"2, 4 - JARDIM DAS ACÁCIAS, Cezarina - GO, 76195000",6435431842,06/08/2008,MDS,Google,-49.2322022,-16.8229761
51073501000,São José do Xingu,5107354,MT,CRAS - CENTRO DE REFERÊNCIA DA ASSISTÊNCIA SOCIAL,CRAS,"20 DE DEZEMBRO, 15 - CENTRO, São José do Xingu - MT, 78663000",6635681031,01/06/2006,MDS,Google,-52.5318604,-10.6738878
26045020564,Chã Grande,2604502,PE,CRAS II,CRAS,"20 de Dezembro, 251 - Centro, Chã Grande - PE, 55636000",8135371788,20/12/2010,MDS,Google,-35.4592032,-8.2458128
43051504243,Cerro Grande,4305157,RS,CRAS,CRAS,"20 de dezembro, 609 - centro, Cerro Grande - RS, 98340000",5537561100,01/09/2007,MDS,Google,-53.1662074,-27.6077776
53001002917,Brasília,5300108,DF,CRAS São Sebastião,CRAS,"201 ÁREA ESPECIAL 05, 0 - SÃO SEBASTIÃO, Brasília - DF, 71692466",6133394028,12/12/2005,MDS,Google,-48.0957291,-15.8184508
53001002784,Brasília,5300108,DF,CRAS SANTA MARIA,CRAS,"209/309 ENTREQUADRAS, 0 - SANTA MARIA, Brasília - DF, 72509300",6133946951,01/07/2005,MDS,Google,-48.0215714,-16.0236878
35174012443,Guaíra,3517406,SP,CRAS 2 - CENTRO DE REFERÊNCIA DE ASSISTÊNCIA SOCIAL,CRAS,"21 B, 911 - NOVA GUAÍRA, Guaíra - SP, 14790000",1733322489,12/12/2008,MDS,Google,-48.3278614,-20.3109349
43124735981,Morro Reuter,4312476,RS,CRAS MORRO REUTER,CRAS,"21 DE ABRIL, 60 - CENTRO, Morro Reuter - RS, 93990000",5135692305,28/08/2012,MDS,Google,-51.0824083,-29.5407755
13014003461,Eirunepé,1301407,AM,CRAS Iolanda Lima Saraiva,CRAS,"21 DE SETEMBRO, 81 - CENTRO, Eirunepé - AM, 69880000",9734812079,02/01/2004,MDS,Google,-69.8674865,-6.6618796
52146020688,Niquelândia,5214606,GO,CRAS UNIDADE JARDIM ATLANTICO,CRAS,"21 de ABRIL, ESQ. JOÃO JERONIMO PEREIRA, 0 - JARDIM ATLANTICO II ETAPA, Niquelândia - GO, 76420000",62996304374,30/03/2010,MDS,Google,-48.42619209999999,-14.4578984
42191004795,Vargeão,4219101,SC,CRAS - CENTRO DE REFERÊNCIA DE ASSISTÊNCIA SOCIAL - AÇÃO E CIDADANIA,CRAS,"21 de Abril, 166 - CENTRO, Vargeão - SC, 89690000",4930505509,07/05/2009,MDS,Google,-52.1609213,-26.8611572
52139004947,Mossâmedes,5213905,GO,MARIA LUIZA DE JESUS,CRAS,"21 de Setembro, 322 - VILA DAMIANA, Mossâmedes - GO, 76150000",6433771142,01/08/2008,MDS,Google,-50.21417959999999,-16.1252647
50032015219,Corumbá,5003207,MS,CRAS Itinerante,CRAS,"21 de Setembro, 62 - Cervejaria, Corumbá - MS, 79301001",6732322458,02/01/2009,MDS,Google,-57.6424215,-19.0233467
17038203778,Cachoeirinha,1703826,TO,CRAS,CRAS,"21 de abril, 0 - centro, Cachoeirinha - TO, 77915000",6334371160,01/09/2007,MDS,Google,-51.1021166,-29.9477228
31615015495,São Geraldo,3161502,MG,CRAS centro de referência de assistência social,CRAS,"21 de abril, 19 - centro, São Geraldo - MG, 36530000",3235561215,01/07/2010,MDS,Google,-42.83359100000001,-20.922368
52073506518,Edealina,5207352,GO,cras renascer,CRAS,"21, 0 - centro, Edealina - GO, 75945000",6434801200,01/08/2008,MDS,Google,-49.71156,-17.38018
35174003121,Guaíra,3517406,SP,CRAS 1 - CENTRO DE REFERENCIA DE ASSISTENCIA SOCIAL,CRAS,"21, 1264 - GERALDA GERTRUDE - CECAP, Guaíra - SP, 14790000",1733315595,01/04/2007,MDS,Google,-48.312419,-20.3200638
33055006396,Saquarema,3305505,RJ,CRAS JACONÉ,CRAS,"22 COM RUA 96, 16 - JACONE, Saquarema - RJ, 28990972",2226522059,01/07/2007,MDS,Google,-42.5947971,-22.9323601
41187006072,Paulo Frontin,4118709,PR,CENTRO DE REFERENCIA DA ASSISTENCIA SOCIAL DE PAULO FRONTIN,CRAS,"22 DE JANEIRO, 0 - CENTRO, Paulo Frontin - PR, 84635000",4235431197,01/06/2008,MDS,Google,-50.8337055,-26.0417989
42079020334,Irineópolis,4207908,SC,CRAS Amigos da Família,CRAS,"22 de Julho, 469 - Centro, Irineópolis - SC, 89440000",4736251602,01/01/2010,MDS,Google,-50.8002935,-26.2396338
31592001342,Santa Rita de Caldas,3159209,MG,CRAS Santa Rita de Caldas,CRAS,"22 de Maio, 100 - Centro, Santa Rita de Caldas - MG, 37775000",3537341043,01/05/2006,MDS,Google,-46.33800309999999,-22.0268265
17188933239,Santa Rita do Tocantins,1718899,TO,CRAS,CRAS,"22 de maio, 0 - CENTRO, Santa Rita do Tocantins - TO, 77565000",6333655011,10/06/2011,MDS,Google,-49.284143,-10.9964535
24047002049,Ipanguaçu,2404705,RN,CRAS - CENTRO DE REFERÊNCIA DE ASSISTÊNCIA SOCIAL,CRAS,"23 DE DEZEMBRO, 805 - CENTRO, Ipanguaçu - RN, 59508000",8433352211,01/03/2007,MDS,Google,-36.859794,-5.5088647
43129030028,Nova Bassano,4312906,RS,CRAS CENTRO DE REFERÊNCIA DE ASSISTÊNCIA SOCIAL- CASA DAS FAMÍLIAS,CRAS,"23 DE MAIO, 725 - CENTRO, Nova Bassano - RS, 95340000",5432732435,26/05/2010,MDS,Google,-51.70286429999999,-28.7317527
17206502185,Silvanópolis,1720655,TO,CRAS CENTRO DE REFERENCIA DA ASSISTENCIA SOCIAL,CRAS,"23 Vinte e três, 0 - CENTRO, Silvanópolis - TO, 77580000",6335421028,01/03/2007,MDS,Google,-48.1727339,-11.1444692
32053001640,Vitória,3205309,ES,CRAS Izaltino Alves - Território São Pedro I,CRAS,"23 de abril, 35 - Ilha das Caieiras, Vitória - ES, 29032290",2733322001,01/01/2005,MDS,Google,-40.3321501,-20.2772888
15048004339,Monte Alegre,1504802,PA,CRAS PLANALTO - CENTRO DE REFERENCIA DE ASSISTENCIA SOCIAL,CRAS,"24 DE JUNHO, 340 - PLANALTO, Monte Alegre - PA, 68220000",92991359019,01/07/2006,MDS,Google,-54.0734217,-1.9900936
23026002755,Camocim,2302602,CE,CRAS II - PROFESSOR IVAN PEREIRA DE CARVALHO,CRAS,"24 DE MAIO, 2911 - PRAIA, Camocim - CE, 62400000",8836211513,01/12/2005,MDS,Google,-40.847927,-2.8889846
15055315112,Parauapebas,1505536,PA,CRAS - Centro de Referência de Assistência Social Minérios,CRAS,"24 QUADRA: 12 LOTE: ESPECIAL, 0 - DOS MINÉRIOS, Parauapebas - PA, 68515000",9433521227,20/06/2013,MDS,Google,-49.9035843,-6.0687491
42075020156,Indaial,4207502,SC,CRAS CARIJÓS,CRAS,"24 de Maio, 320 - Carijós, Indaial - SC, 89130000",4733829301,01/06/2010,MDS,Google,-49.2361792,-26.8802285
35137011742,Descalvado,3513702,SP,Casa da Família,CRAS,"24 de Outubro, 483 - CENTRO, Descalvado - SP, 13690000",1935836796,26/05/2006,MDS,Google,-47.6196801,-21.9047757
43095530058,Harmonia,4309555,RS,CRAS AUXILIADORA,CRAS,"25 DE JULHO, 355 - CENTRO, Harmonia - RS, 95785000",5136951271,10/01/2011,MDS,Google,-51.4225254,-29.54685199999999
42194038015,Witmarsum,4219408,SC,CRAS ESTRELAR,CRAS,"25 de Julho, 83 - Centro, Witmarsum - SC, 89157000",4733580197,27/08/2014,MDS,Google,NA,NA
35328006520,Nova Aliança,3532801,SP,CRAS - CASA DA FAMILIA,CRAS,"25 de Março, 293 - CENTRO, Nova Aliança - SP, 15210000",1738111299,01/04/2008,MDS,Google,-49.4988327,-21.0150297
29109003124,Firmino Alves,2910909,BA,CRAS FIRMINO ALVES,CRAS,"27 DE JULHO, 164 - CENTRO, Firmino Alves - BA, 45720000",73982533429,01/05/2007,MDS,Google,-39.92722680000001,-14.9827939
35423037937,Redenção da Serra,3542305,SP,CRAS Centro  Redenção da Serra,CRAS,"28 DE AGOSTO, 0 - CENTRO, Redenção da Serra - SP, 12170000",1236761449,26/05/2014,MDS,Google,-45.53372760000001,-23.2817893
43054430041,Chuvisca,4305447,RS,CRAS ESPAÇO APRENDER E VIVER,CRAS,"28 DE DEZEMBRO, 3201 - CENTRO, Chuvisca - RS, 96193000",5136117103,01/11/2010,MDS,Google,-52.0003599,-30.79774
29330512037,Várzea da Roça,2933059,BA,Centro de Referência de Assistência Social,CRAS,"28 de Outubro, 20 - Centro, Várzea da Roça - BA, 44635000",7436692174,01/06/2006,MDS,Google,-40.1402028,-11.6059931
15017204330,Brasil Novo,1501725,PA,CRAS VIDA RENOVADA,CRAS,"28 de abril, 603 - CENTRO, Brasil Novo - PA, 68148000",9335141183,01/08/2007,MDS,Google,-52.5407058,-3.3021284
52045506220,Caldazinha,5204557,GO,Centro de Refrencia da Assistencia Social,CRAS,"29 de Abril, 0 - Centro, Caldazinha - GO, 75245000",6235611128,01/11/2007,MDS,Google,-48.9807651,-16.7424279
25167501029,Tenório,2516755,PB,CRAS - MARIA ALVES DE ANDRADE,CRAS,"29 de abril, 303 - Bairro Bela Vista, Tenório - PB, 58665000",8336441000,01/04/2004,MDS,Google,-36.6201892,-6.9783675
29334003643,Wagner,2933406,BA,Ester Pires de Almeida,CRAS,"29 de janeiro, 2 - Centro, Wagner - BA, 46970000",7533362264,01/01/2006,MDS,Google,-41.1602597,-12.2686701
52129503473,Matrinchã,5212956,GO,CRAS MATRINCHÃ,CRAS,"2A, 0 - ODILON RORIZ II, Matrinchã - GO, 76730000",6233911449,01/03/2005,MDS,Google,-50.8040271,-15.3634287
15079004448,Soure,1507904,PA,CRAS - CENTRO DE REFERENCIA DA ASSISTENCIA SOCIAL,CRAS,"2ª RUA ESQUINA TRAVESSA 15 CENTRO  SOURE, 381 - CENTRO, Soure - PA, 68870000",9137411143,01/07/2007,MDS,Google,-48.5192696,-0.728009
29192003195,Lauro de Freitas,2919207,BA,CRAS PORTÃO,CRAS,"2ª TRAVESSA DO RETIRO, 7 - PORTÃO, Lauro de Freitas - BA, 42700000",7133699960,01/04/2006,MDS,Google,-38.3030956,-12.8676975
29292038946,São Francisco do Conde,2929206,BA,CRAS   Coroado,CRAS,"2ª Travessa da Mangueira, 177 - Coroado, São Francisco do Conde - BA, 43900000",7136529315,24/01/2018,MDS,Google,-38.6212394,-12.7244888
17170030935,Pindorama do Tocantins,1717008,TO,CRAS,CRAS,"3, 0 - CENTRO, Pindorama do Tocantins - TO, 77380000",6333751232,01/12/2010,MDS,Google,-47.5780577,-11.1353951
23070004079,Jaguaruana,2307007,CE,CRAS Raimunda Amelia da Silva,CRAS,"3, 0 - COHAB, Jaguaruana - CE, 62823000",8834182406,04/09/2006,MDS,Google,-37.78318,-4.838439999999999
52206031319,Silvânia,5220603,GO,CRAS - CRISTINA MÔNICA DE PAULA,CRAS,"3, 0 - PEDRINHAS, Silvânia - GO, 75180000",6233323411,14/03/2011,MDS,Google,-48.6150846,-16.6674028
52187030981,Rianápolis,5218706,GO,CRAS,CRAS,"3, 115 - BELA VISTA, Rianápolis - GO, 76315000",6233483139,22/06/2010,MDS,Google,-49.50742,-15.44723
31098015132,Cachoeira Dourada,3109808,MG,CRAS - Centro de Referencia de Assistencia Social de Cachoeira Dourada,CRAS,"3, 29 - centro, Cachoeira Dourada - MG, 38370000",3435145041,28/02/2011,MDS,Google,-49.5020391,-18.5168426
28045020295,Nossa Senhora da Glória,2804508,SE,CRAS - CENTRO DE REFERÊNCIA DA ASSISTÊNCIA SOCIAL - CASA DA FAMÍLIA,CRAS,"3, 292 - JARDIM DO SERTÃO, Nossa Senhora da Glória - SE, 49680000",7999323077,12/08/2010,MDS,Google,-37.4212807,-10.2156554
26024001510,Brejão,2602407,PE,CRAS Elzi Danielle da Costa Lopes,CRAS,"3, 38 - COHAB, Brejão - PE, 55325000",8737891224,01/05/2004,MDS,Google,-36.5663644,-9.0295682
52081530953,Gameleira de Goiás,5208152,GO,CRAS de Gameleira de Goiás,CRAS,"3, 414 - centro, Gameleira de Goiás - GO, 75184000",6233223175,01/02/2010,MDS,Google,-48.6454678,-16.4855094
42070006058,Içara,4207007,SC,CRAS JAQUELINE,CRAS,"30 DE DEZEMBRO, 0 - JAQUELINE, Içara - SC, 88820000",4834313571,01/02/2008,MDS,Google,-49.2857298,-28.7139686
35439001821,Rio Claro,3543907,SP,CRAS - Região Brasilia,CRAS,"30, 290 - Jardim Brasilia, Rio Claro - SP, 13502296",1935333752,01/03/2007,MDS,Google,-47.5581839,-22.4228618
15080338414,Tracuateua,1508035,PA,CRAS  VILA FÁTIMA,CRAS,"308 - BRAGANÇA/CAPANEMA, 0 - ZONA RURAL, Tracuateua - PA, 68700000",9134851191,01/10/2015,MDS,Google,-47.1772027,-1.2072373
52046531235,Campinaçu,5204656,GO,CRAS,CRAS,"31 DE MARÇO, 0 - CENTRO, Campinaçu - GO, 76440000",6233773315,25/03/2011,MDS,Google,-48.6388879,-13.817229
26031003232,Cachoeirinha,2603108,PE,CRAS,CRAS,"31 DE MARÇO, 278 - CENTRO, Cachoeirinha - PE, 55380000",8137421156,01/05/2005,MDS,Google,-36.2374768,-8.489219499999999
17148815356,Nova Olinda,1714880,TO,CRAS SEMEANDO ESPERANÇAS,CRAS,"31 de Março, 1421 - CENTRO, Nova Olinda - TO, 77790000",6334521858,20/03/2009,MDS,Google,-48.4167922,-7.6329343
42092034997,Lacerdópolis,4209201,SC,CRAS,CRAS,"31 de Março, 855 - Centro, Lacerdópolis - SC, 89660000",4935520383,13/12/2011,MDS,Google,-51.5565797,-27.2636512
41044500612,Cantagalo,4104451,PR,CENTRO DE REFÊNCIA DA ASSISTÊNCIA SOCIAL DE CANTAGALO,CRAS,"31 de Março, 88 - Centro, Cantagalo - PR, 85160000",4236361909,01/07/2006,MDS,Google,-52.1234439,-25.378
31624006633,São João da Ponte,3162401,MG,CRAS FAMILIAS UNIDAS,CRAS,"31 de dezembro, 244 - centro, São João da Ponte - MG, 39430000",3832341781,01/09/2008,MDS,Google,-44.0073322,-15.9301077
31065003800,Berilo,3106507,MG,CRAS LELIVELDIA,CRAS,"32, 1 - CENTRO, Berilo - MG, 39640000",3337372130,01/01/2010,MDS,Google,-42.5117238,-16.8102876
51077701154,Santa Terezinha,5107776,MT,CRAS casa da Familia,CRAS,"32, 100 - setor serrinha, Santa Terezinha - MT, 78650000",6635581094,01/08/2004,MDS,Google,-39.0084965,-11.662842
33003003593,Barra do Piraí,3300308,RJ,CRAS California,CRAS,"32, 142 - Morada do Vale, Barra do Piraí - RJ, 27163000",2433478451,01/07/2007,MDS,Google,-44.0454988,-22.4808352
26107004689,Paulista,2610707,PE,CRAS IV,CRAS,"32, 671 - MARANGUAPE II, Paulista - PE, 53421201",81987883579,01/11/2005,MDS,Google,-34.8581916,-7.9324748
43184830554,São José do Hortêncio,4318481,RS,CRAS NOVO HORIZONTE,CRAS,"33, 160 - Centro, São José do Hortêncio - RS, 95755000",5135711149,20/06/2010,MDS,Google,-51.249362,-29.5266893
17109012593,Itapiratins,1710904,TO,CRAS ITAPIRATINS,CRAS,"34, 0 - SETOR BELA VISTA, Itapiratins - TO, 77718000",63999488003,02/01/2008,MDS,Google,-48.198316,-7.1604964
52038031139,Britânia,5203807,GO,CRAS - CASA DA FAMILIA,CRAS,"3A, 0 - VILA MUTIRÃO, Britânia - GO, 76280000",6233831434,03/11/2010,MDS,Google,-51.1714785,-15.2507202
13026002718,Manaus,1302603,AM,CRAS SÃO JOSE III,CRAS,"4, 0 - SÃO JOSE III, Manaus - AM, 69043150",9236397996,01/02/2006,MDS,Google,-59.9432561,-3.0697164
52206802236,Simolândia,5220686,GO,CRAS CASA DAS FAMILIAS,CRAS,"4, 1 - JARDIM BRASIL, Simolândia - GO, 73930000",6234881010,01/06/2006,MDS,Google,-46.574058,-14.4208863
35055000941,Barretos,3505500,SP,Cras II,CRAS,"4, 745 - Clementina, Barretos - SP, 14781354",1733225638,01/05/2006,MDS,Google,-48.56344139999999,-20.5451951
42083020374,Itapema,4208302,SC,CRAS - Centro de Referência de Assistência Social,CRAS,"434, 1000 - Morretes, Itapema - SC, 88220000",4732671481,30/08/2010,MDS,Google,-48.61752190000001,-27.1286236
21113002416,São Luís,2111300,MA,CRAS SÃO RAIMUNDO,CRAS,"45, 24 - CONJUNTO SÃO RAIMUNDO, São Luís - MA, 65058230",98988650295,01/10/2005,MDS,Google,-44.231696,-2.5940825
15063011582,Salvaterra,1506302,PA,Dulcinéia Macedo de Carvalho,CRAS,"4ª rua, 254 - Centro, Salvaterra - PA, 68860000",91991153738,06/06/2008,MDS,Google,-48.5173294,-0.7307479
51056000779,Matupá,5105606,MT,CASA DA FAMILIA,CRAS,"5, 102 - UNIÃO, Matupá - MT, 78525000",6635952152,01/03/2004,MDS,Google,-54.9285745,-10.1659421
35439001823,Rio Claro,3543907,SP,CRAS - Região Bom Sucesso,CRAS,"5, 1201 - Bom Retiro, Rio Claro - SP, 13503615",1935313243,01/03/2007,MDS,Google,-46.64070599999999,-23.5256699
26130000046,São Bento do Una,2613008,PE,CRAS ANTONIO MATIAS,CRAS,"5, 21 - IRAQUE, São Bento do Una - PE, 55370000",8137353254,01/10/2005,MDS,Google,-36.4431999,-8.523630599999999
35120002046,Colina,3512001,SP,CRAS (Centro de Referencia de Assistência Social),CRAS,"5, 310 - Cohab I, Colina - SP, 14770000",1733411915,01/09/2005,MDS,Google,-48.0155829,-23.0230388
33063030330,Volta Redonda,3306305,RJ,CRAS Roma II,CRAS,"5, 36 - ROMA II, Volta Redonda - RJ, 27180000",2433206655,12/07/2007,MDS,Google,-44.1315391,-22.5261438
52214020594,Trindade,5221403,GO,CRAS VILA PAI ETERNO,CRAS,"50, 481 - VILA PADRE ETERNO, Trindade - GO, 75380000",6235062783,16/06/2010,MDS,Google,-49.4045875,-16.6294829
52156002296,Padre Bernardo,5215603,GO,CENTRO DE REFERENCIA DA ASSISTENCIA SOCIAL,CRAS,"55 quadra 22 lote 13/19, 0 - SETOR LESTE, Padre Bernardo - GO, 73700000",6136331891,01/10/2004,MDS,Google,-48.2717067,-15.1689424
42012038932,Antônio Carlos,4201208,SC,CRAS,CRAS,"6 de novembro, 84 - Centro, Antônio Carlos - SC, 88180000",4832728677,30/01/2018,MDS,Google,-48.7677856,-27.5189714
35174030339,Guaíra,3517406,SP,CRAS 3 - CENTRO DE REFERENCIA DE ASSISTÊNCIA SOCIAL,CRAS,"6, 1085 - CENTRO, Guaíra - SP, 14790000",1733315689,20/03/2010,MDS,Google,-48.312419,-20.3200638
52042030907,Cachoeira de Goiás,5204201,GO,CRAS,CRAS,"6, 115 - Centro, Cachoeira de Goiás - GO, 76125000",6436761292,01/11/2010,MDS,Google,-50.72089889999999,-16.7420576
31118004503,Canápolis,3111804,MG,CRAS Centro de Referência da Assistência Social de Canápolis,CRAS,"6, 360 - centro, Canápolis - MG, 38380000",3432663532,13/04/2009,MDS,Google,-49.2037886,-18.7237564
22110020382,Teresina,2211001,PI,CRAS SUL III,CRAS,"63, 2050 - PROMORAR, Teresina - PI, 64027140",8632205405,12/04/2010,MDS,Google,-42.7908029,-5.1541462
51034020699,Cuiabá,5103403,MT,CRAS CPA,CRAS,"67, 47 - CPA III St I, Cuiabá - MT, 78058470",6536467167,14/07/2010,MDS,Google,-56.0465128,-15.5673079
52222002188,Vila Boa,5222203,GO,CRAS - VILA BOA,CRAS,"7 DE SETEMBRO QD 11,    LT 04, 4 - JARDIM NOVA AURORA, Vila Boa - GO, 73825000",6134661143,01/07/2004,MDS,Google,-48.2556157,-18.0601135
21046005094,Governador Eugênio Barros,2104602,MA,CENTRO DE REFERÊNCIA DA ASSISTÊNCIA SOCIAL,CRAS,"7 DE SETEMBRO, 0 - CENTRO, Governador Eugênio Barros - MA, 65780000",9935641207,01/06/2008,MDS,Google,-44.0579882,-5.3912162
51034500729,Denise,5103452,MT,CENTRO DE REFERENCIA DE ASSISTENCIA SOCIAL,CRAS,"7 DE SETEMBRO, 378 - CENTRO, Denise - MT, 78380000",6533421854,01/04/2006,MDS,Google,-57.048794,-14.7288037
43008001126,Antônio Prado,4300802,RS,CRAS DORVALINO AFONSO DE NALE,CRAS,"7 DE SETEMBRO, 976 - FÁTIMA, Antônio Prado - RS, 95250000",5432934091,01/06/2006,MDS,Google,-51.2711178,-28.8455226
17163002319,Pau D'Arco,1716307,TO,CRAS CENTRO DE REFERÊNCIA DE ASSISTÊNCIA SOCIAL DE PAU D ARCO,CRAS,"7 de Setembro, 0 - Centro, Pau D'Arco - TO, 77785000",6334251225,01/09/2006,MDS,Google,NA,NA
35073006664,Boracéia,3507308,SP,CRAS Um lugar de refazer história,CRAS,"7 de maio, 210 - Centro, Boracéia - SP, 17270000",1432959100,01/10/2007,MDS,Google,-48.7795326,-22.1953391
33063030326,Volta Redonda,3306305,RJ,CRAS Padre Josimo,CRAS,"7, 101 - Padre Josimo, Volta Redonda - RJ, 27273750",2433383694,10/03/2000,MDS,Google,-44.1422657,-22.5122346
23097001183,Pacatuba,2309706,CE,CRAS ANA GOMES DA SILVA,CRAS,"71, 776 - Conjunto Carlos Jereissati II, Pacatuba - CE, 61800000",8533451170,01/07/2005,MDS,Google,-38.6188955,-3.881963
43016004251,Bagé,4301602,RS,CENTRO DE REFERÊNCIA DE ASSISTÊNCIA SOCIAL PRADO VELHO,CRAS,"738, 140 - PRADO VELHO, Bagé - RS, 96400000",5332475730,01/03/2004,MDS,Google,-54.0636684,-31.3307835
33063003445,Volta Redonda,3306305,RJ,CRAS Rústico,CRAS,"78, 142 - RÚSTICO, Volta Redonda - RJ, 27264290",2433394279,01/05/2005,MDS,Google,-44.1132594,-22.5225866
13026002579,Manaus,1302603,AM,CRAS ALFREDO NASCIMENTO,CRAS,"8, 13 - ALFREDO NASCIMENTO, Manaus - AM, 69099435",9236464857,01/03/2007,MDS,Google,-59.9533735,-3.0150495
52218503281,Valparaíso de Goiás,5221858,GO,CRAS - CÉU AZUL,CRAS,"80 Quadra 164, 17 - JARDIM CÉU AZUL, Valparaíso de Goiás - GO, 72871080",6136247626,01/06/2004,MDS,Google,-48.02055,-16.0595661
21113002419,São Luís,2111300,MA,CRAS  VINHAIS,CRAS,"81 AREA INSTITUCIONAL, 15 - VINHAIS, São Luís - MA, 65074300",9888650308,02/05/2010,MDS,Google,-44.2548442,-2.522606
42083039175,Itapema,4208302,SC,CRAS II,CRAS,"816A, 160 - Casa Branca, Itapema - SC, 88220000",4732671465,24/04/2019,MDS,Google,-48.6287862,-27.087795
52125004842,Luziânia,5212501,GO,CRAS JARDIM INGÁ,CRAS,"9 DE JULHO S/N AREA ESPECIAL, 5 - JARDIM INGÁ, Luziânia - GO, 72850240",6139691050,01/03/2009,MDS,Google,-47.9561115,-16.1444316
15024006467,Castanhal,1502400,PA,CRAS ANTONIO ARISTOTELES SOARES BEZERRA,CRAS,"9 de novembro, 0 - Pantanal, Castanhal - PA, 68740000",91988861003,01/03/2007,MDS,Google,-47.9458457,-1.3149969
51002010358,Água Boa,5100201,MT,CENTRO DE REFERENCIA DE ASSISTENCIA SOCIAL,CRAS,"9, 1070 - CENTRO, Água Boa - MT, 78635000",6634683661,20/01/2005,MDS,Google,-52.1580553,-14.0583348
23037001340,Caucaia,2303709,CE,CRAS PARQUE DAS NAÇÕES,CRAS,"9, 130 - Novo São Miguel, Caucaia - CE, 61645090",8532852248,01/05/2004,MDS,Google,-38.6119969,-3.7525818
35467004293,Santa Gertrudes,3546702,SP,CRAS SANTA GERTRUDES,CRAS,"9, 2 - JD INDAIA 3, Santa Gertrudes - SP, 13510000",1935453754,01/05/2006,MDS,Google,-47.5327594,-22.4525885
35343006346,Orlândia,3534302,SP,CENTRO DE REFERENCIA DE ASSISTENCIA SOCIAL MARIA EUNICE SEGATTO,CRAS,"9, 479 - Centro, Orlândia - SP, 14620000",1638208170,01/07/2008,MDS,Google,-47.8896757,-20.7206967
51048036267,Jaciara,5104807,MT,CRAS VANDICLEI BISPO DE SOUZA,CRAS,"9, 50 - ZÉ ARAÇA, Jaciara - MT, 78820000",6634615860,20/09/2012,MDS,Google,-54.9528079,-15.9616214
41252006017,São Jorge d'Oeste,4125209,PR,CRAS - CENTRO DE  REFERENCIA DE ASSISTENCIA SOCIAL - CASA DAS FAMILIAS DE SÃO JO,CRAS,"A STA CATARINA, 697 - CENTRO, São Jorge d'Oeste - PR, 85575000",4635342365,01/02/2008,MDS,Google,-52.915544,-25.7089498
28036020431,Laranjeiras,2803609,SE,CRAS ÂNGELA MARIA DE CARVALHO LIMA BOMFIM,CRAS,"A, 0 - CENTRO, Laranjeiras - SE, 49170000",7932813468,03/12/2010,MDS,Google,-37.1666477,-10.8030086
29107020484,Euclides da Cunha,2910701,BA,CRAS - CENTRO DE REFERENCIA DE ASSISTENCIA SOCIAL,CRAS,"A, 0 - NOSSA SENHORA DA CONCEIÇÃO, Euclides da Cunha - BA, 48500000",7532711135,10/08/2010,MDS,Google,-39.0132612,-10.5070897
29148038138,Itabuna,2914802,BA,CRAS CEU,CRAS,"A, 0 - Sinval Palmeiras, Itabuna - BA, 45609220",7336163425,28/07/2014,MDS,Google,-39.3110597,-14.8203481
33004034285,Barra Mansa,3300407,RJ,CRAS MORADA VERDE,CRAS,"A, 78 - MORADA VERDE, Barra Mansa - RJ, 27350390",2433283951,01/01/2011,MDS,Google,-44.19765100000001,-22.5041995
16000534901,Serra do Navio,1600055,AP,CRAS PARCEIRO DA CIDADANIA,CRAS,"A-1, 0 - VILA PRIMÁRIA, Serra do Navio - AP, 68948000",96984074956,01/12/2011,MDS,Google,-52.2762322,1.63482
11012003504,Ministro Andreazza,1101203,RO,CRAS CASA DAS FAMILIAS,CRAS,"A-3, 6281 - PROJETO HABITACIONAL PLANTE UMA ARVORE, Ministro Andreazza - RO, 76919000",6934482232,01/07/2006,MDS,Google,-61.509738,-11.0766579
41058000182,Colombo,4105805,PR,CRAS MARACANÃ,CRAS,"ABEL SCUISSIATO, 40 - MARACANÃ, Colombo - PR, 83408280",4136633966,15/05/2007,MDS,Google,-49.1861004,-25.3656158
25076005007,Juarez Távora,2507606,PB,CRAS - CENTRO DE REFERÊNCIA DE ASSISTÊNCIA SOCIAL,CRAS,"ABILIO DOMINGOS, 0 - CENTRO, Juarez Távora - PB, 58387000",8332671072,01/06/2008,MDS,Google,-35.5885479,-7.1747127
28001003870,Amparo de São Francisco,2800100,SE,CRAS José Correia dos Santos,CRAS,"ABRAAO FREIRE, 0 - centro, Amparo de São Francisco - SE, 49920000",7933611012,01/08/2005,MDS,Google,-36.928336,-10.1342494
35562038094,Valinhos,3556206,SP,CRAS FIGUEIRAS,CRAS,"ABRAHÃO MARTINI, 51 - JARDIM DAS FIGUEIRAS, Valinhos - SP, 13275615",1938693313,25/08/2014,MDS,Google,-46.9790847,-22.9857013
52215031141,Turvânia,5221502,GO,CRAS Dorcelina Rodrigues da Silva,CRAS,"ABRAO DR, 10 - PALMARES, Turvânia - GO, 76110000",6436821271,04/11/2010,MDS,Google,-50.1282512,-16.6095486
22075004463,Palmeirais,2207504,PI,CENTRO DE REFERENCIA DA ASSISTENCIA SOCIAL,CRAS,"ABRIGO DOS INUDADOS, 0 - CENTRO, Palmeirais - PI, 64420000",86995676848,01/08/2005,MDS,Google,-43.0622069,-5.9763619
29259304224,Quixabeira,2925931,BA,Casa da Família,CRAS,"ABSOLON DIAS NOVAES, 19 - CENTRO, Quixabeira - BA, 44713000",74981390822,01/01/2006,MDS,Google,-40.12647339999999,-11.4119519
13026002590,Manaus,1302603,AM,CRAS ALVORADA I,CRAS,"ABÍLIO ALENCAR, 0 - ALVORADA I, Manaus - AM, 69043324",9232389505,01/02/2006,MDS,Google,-60.04859750000001,-3.0788031
35061038472,Bebedouro,3506102,SP,CRAS LESTE,CRAS,"ABÍLIO FRANÇA VALENTE, 261 - DE LUCIA, Bebedouro - SP, 14711006",1733438295,08/12/2015,MDS,Google,-48.4701856,-20.9335436
35202030523,Igaratá,3520202,SP,CRAS - Centro de Referencia de Assistencia Social,CRAS,"AC FRANCISCO LOURENÇO, 70 - Centro, Igaratá - SP, 12350000",1146586507,14/06/2010,MDS,Google,-46.1560548,-23.204763
35452003491,Salto,3545209,SP,CRAS SALTENSE,CRAS,"ACACIO RODRIGUES DE MORAES, 522 - JARDIM SALTENSE, Salto - SP, 13327220",1140282528,31/03/2007,MDS,Google,-47.3146379,-23.1785449
23037020673,Caucaia,2303709,CE,CRAS FRANCISCO DE ASSIS MARTINS NOGUEIRA - GUADALAJARA,CRAS,"ACAPULCO, 706 - PARQUE GUADALAJARA, Caucaia - CE, 61650160",8532371292,01/07/2010,MDS,Google,-38.6208798,-3.7626112
15002004551,Acará,1500206,PA,CRAS ALEGRIA,CRAS,"ACARA MOJU, KM01 S/N, 0 - alegria, Acará - PA, 68690000",9137321568,03/08/2005,MDS,Google,-48.7655306,-1.8844563
31687015239,Timóteo,3168705,MG,CRAS TERRITORIO SUL,CRAS,"ACESITA, 3150 - SÃO JOSÉ, Timóteo - MG, 35182132",3138477641,10/01/2003,MDS,Google,-42.6423301,-19.576221
15006003631,Altamira,1500602,PA,CRAS CENTRO DE REFEREÊNCIA DE ASSISTÊNCIA SOCIAL - VOVÓ DOLORES,CRAS,"ACESSO OITO, 877 - SUDAM I, Altamira - PA, 68371260",93992072832,01/06/2007,MDS,Google,-52.2154552,-3.2033579
29293502617,São José da Vitória,2929354,BA,CRAS - CENTRO,CRAS,"ACM, 185 - NOVA VITORIA, São José da Vitória - BA, 45620000",7336941311,01/01/2007,MDS,Google,-39.3440478,-15.0791275
11000920220,Espigão D'Oeste,1100098,RO,CRAS Família Acolhida,CRAS,"ACRE, 2841 - VISTA ALEGRE, Espigão D'Oeste - RO, 76974000",6934811846,10/12/2009,MDS,Google,-61.01345669999999,-11.5379858
35386000533,Piracaia,3538600,SP,CRAS BATATUBA,CRAS,"ACRE, 30 - BATATUBA, Piracaia - SP, 12970000",1140367702,01/06/2006,MDS,Google,-46.3669022,-23.0560485
51073006343,São José do Rio Claro,5107305,MT,CRAS - São José do Rio Claro,CRAS,"ACRE, 415 - NOVO HORIZONTE, São José do Rio Claro - MT, 78435000",6533862505,01/01/2008,MDS,Google,-56.72416279999999,-13.4476505
31082000821,Bonfinópolis de Minas,3108206,MG,CENTRO DE REFERENCIA DA ASSISTENCIA SOCIAL,CRAS,"ACRE, 520 - JARDIM CINELANDIA, Bonfinópolis de Minas - MG, 38650000",3836751121,01/12/2005,MDS,Google,-70.81199529999999,-9.0237964
31567003746,Sabará,3156700,MG,CRAS BORBA GATO,CRAS,"ADAIR SIQUEIRA DE QUEIROZ, 8 - BORBA GATO, Sabará - MG, 34730030",3136916402,01/06/2007,MDS,Google,-43.8469537,-19.833794
52069031167,Davinópolis,5206909,GO,CRAS - DONA ABELUZ FERREIRA COELHO,CRAS,"ADALARDO PINTO Q8 L0, 0 - setor central, Davinópolis - GO, 75730000",6436971113,11/03/2011,MDS,Google,-47.561416,-18.1543766
35188001756,Guarulhos,3518800,SP,CRAS SANTOS DUMONT,CRAS,"ADALBERTO BELLINI, 214 - JARDIM BANANAL, Guarulhos - SP, 7152440",1124673315,07/11/2006,MDS,Google,-46.470000400000004,-23.4031607
31680502403,Taparuba,3168051,MG,CRAS CASA DA FAMILIA,CRAS,"ADALBERTO DE LIMA, 235 - CENTRO, Taparuba - MG, 36953000",3333148120,01/02/2007,MDS,Google,-41.6162533,-19.7649099
21091003840,Presidente Dutra,2109106,MA,CRAS I - PAULO FALCAO,CRAS,"ADALBERTO MACEDO, 0 - PAULO FALCÃO, Presidente Dutra - MA, 65760000",99991954022,01/12/2006,MDS,Google,-44.4993869,-5.287782099999999
29141020306,Ipupiara,2914109,BA,CRAS Laurentina Ribeiro Martins,CRAS,"ADAO FRANCISCO MARTINS, 8 - centro, Ipupiara - BA, 47590000",7736461119,29/03/2010,MDS,Google,-42.6117689,-11.8223181
17039002310,Caseara,1703909,TO,CRAS CASAS DAS FAMILIAS DE CASEARA,CRAS,"ADELAIDE VASCONCELOS, 0 - CENTRO, Caseara - TO, 77680000",6333791492,01/08/2006,MDS,Google,-138.6007456,-34.9284989
35293038758,Matão,3529302,SP,CRAS PARAÍSO,CRAS,"ADELINO BESSI, 318 - JARDIM PARAISO, Matão - SP, 15991356",1633841164,03/04/2017,MDS,Google,-48.3395799,-21.6293686
15018036213,Breves,1501808,PA,CRAS JARDIM TROPICAL,CRAS,"ADEMAR FERREIRA, 1206 - JARDIM TROPICAL, Breves - PA, 68800000",9137833535,22/10/2012,MDS,Google,-50.4902848,-1.6813366
31666030693,Serra da Saudade,3166600,MG,CRAS Amigo das Famílias,CRAS,"ADEMAR RIBEIRO DE OLIVEIRA, 130 - CENTRO, Serra da Saudade - MG, 35617000",3735551112,15/10/2010,MDS,Google,-45.79202,-19.439385
27087001007,São Miguel dos Milagres,2708709,AL,Centro de Refererência de Assistência Social,CRAS,"ADERBAL DA COSTA RAPOSO, 0 - PORTO DA RUA, São Miguel dos Milagres - AL, 57940000",8232951257,18/07/2008,MDS,Google,-35.3513039,-9.2397441
42043035227,Concórdia,4204301,SC,CRAS DELFINA JOANA FRIGO SARETTA,CRAS,"ADIILIO HILARIO MUTSEMBERG, 729 - GUILHERME REICH, Concórdia - SC, 89700132",4934422234,13/01/2012,MDS,Google,-52.02197049999999,-27.2483495
41199033475,Ponta Grossa,4119905,PR,CRAS SABARÁ,CRAS,"ADILIO RAMOS, 0 - SABARA, Ponta Grossa - PR, 84062270",4232201065,02/05/2011,MDS,Google,-50.200716,-25.085045
43224003989,Uruguaiana,4322400,RS,CRAS - CABO LUIS QUEVEDO,CRAS,"ADIR MASCIA, 556 - CABO LUIS QUEVEDO, Uruguaiana - RS, 97503733",55996618716,01/06/2006,MDS,Google,-57.1061056,-29.7797242
23067004094,Jaguaretama,2306702,CE,CRAS I,CRAS,"ADOLFO BEZERRA DE MENEZES, 373 - ACAMAPAMENTO, Jaguaretama - CE, 63480000",8835761439,01/08/2005,MDS,Google,-38.7650383,-5.6120277
42013035418,Araquari,4201307,SC,CRAS - JUSTINA CABRAL,CRAS,"ADOLFO BEZERRA DE MENEZES, 415 - PORTO GRANDE, Araquari - SC, 89245000",4734550608,02/04/2012,MDS,Google,-48.7552469,-26.4162352
21119006771,Sucupira do Norte,2111904,MA,CENTRO DE REFERÊNCIA DE ASSISTENCIA SOCIAL-CRAS,CRAS,"ADONIAS LUCAS DE LACERDA, 0 - CENTRO, Sucupira do Norte - MA, 65860000",9935591357,01/06/2008,MDS,Google,-44.191479,-6.4775708
28017002391,Cristinápolis,2801702,SE,CRAS - CENTRO DE REFERENCIA DE ASSISTENCIA SOCIAL,CRAS,"ADRIÃO CARDOSO DE ARAUJO, 12 - CENTRO, Cristinápolis - SE, 49270000",7935421871,01/11/2005,MDS,Google,-37.756342,-11.4784744
43093039064,Guaíba,4309308,RS,CRAS Zona Sul,CRAS,"ADÃO FOQUES, 3297 - PASSO FUNDO, Guaíba - RS, 92500000",5134807042,01/10/2018,MDS,Google,-51.3397394,-30.1541492
42089038580,Jaraguá do Sul,4208906,SC,CRAS Vila Lenzi,CRAS,"ADÃO NOROSCHNY, 444 - VILA LENZI, Jaraguá do Sul - SC, 89252510",4732758700,15/08/2016,MDS,Google,-49.1031177,-26.4858546
26164004604,Vitória de Santo Antão,2616407,PE,CRAS LÍDIA QUEIROZ,CRAS,"ADÉLIO ANDRADE, 580 - Lidia Queroz, Vitória de Santo Antão - PE, 55614295",8135235059,01/02/2005,MDS,Google,-35.283694,-8.125155699999999
17033036191,Bom Jesus do Tocantins,1703305,TO,CRAS - Centro de Referência de Assistência Social,CRAS,"AEROPORTO, 0 - AEROPORTO, Bom Jesus do Tocantins - TO, 77714000",6334831129,01/09/2011,MDS,Google,-47.8822604,-9.0488682
17095038396,Gurupi,1709500,TO,CRAS VILA NOVA,CRAS,"AEROPORTO, 0 - VILA NOVA, Gurupi - TO, 77405200",6333150021,03/07/2014,MDS,Google,-49.067284,-11.719689
17187502315,Rio Sono,1718758,TO,CRAS - PIONEIRO,CRAS,"AEROPORTO, 220 - NOVO HORIZONTE, Rio Sono - TO, 77635000",6334511081,01/08/2006,MDS,Google,-47.8923857,-9.346576400000002
24133002135,Serra de São Bento,2413300,RN,CRAS SERRA DE SÃO BENTO,CRAS,"AFONSO BELMONTE, 18 - CENTRO, Serra de São Bento - RN, 59214000",8432890054,01/09/2005,MDS,Google,-35.7040133,-6.417421399999999
31194001211,Coronel Fabriciano,3119401,MG,Cras Território I,CRAS,"AFONSO DAMASCENO, 839 - NAZARE, Coronel Fabriciano - MG, 35170114",3138411136,01/08/2006,MDS,Google,-42.628666,-19.52251
17188602231,Santa Fé do Araguaia,1718865,TO,CRAS - CENTRO DE REFERENCIA DE ASSISTENCIA SOCIAL,CRAS,"AFONSO DE SOUSA REZENDE, 0 - CENTRO, Santa Fé do Araguaia - TO, 77848000",6334701125,28/05/2007,MDS,Google,-48.6915418,-7.1545302
26128000927,Santa Terezinha,2612802,PE,CRAS CASA DA FAMÍLIA,CRAS,"AFONSO FERREIRA NETO, 173 - Centro, Santa Terezinha - PE, 56750000",8738591113,01/12/2005,MDS,Google,-37.480592,-7.374045099999999
22035003381,Elesbão Veloso,2203503,PI,UNIVERSALIZAÇÃO,CRAS,"AFONSO MAFRENSE, 671 - VERMELHA, Elesbão Veloso - PI, 64325000",8632851234,01/12/2005,MDS,Google,-42.139849,-6.201479600000001
31655330260,Sarzedo,3165537,MG,CRAS BENJAMIN GOMES DA SILVA,CRAS,"AFONSO PENA, 45 - BRASILIA, Sarzedo - MG, 32450000",3135777420,01/03/2010,MDS,Google,-44.1304607,-20.0474077
11003303578,Nova Mamoré,1100338,RO,CRAS CASA DA FAMÍLIA,CRAS,"AFONSO PENA, 7046 - JOÃO FRANCISCO CLÍMACO, Nova Mamoré - RO, 76857000",6935442788,01/12/2005,MDS,Google,-65.33125919999999,-10.4162164
42087020137,Jacinto Machado,4208708,SC,CRAS CASA DA FAMÍLIA,CRAS,"AFONSO POSSAMAI DELLA, 0 - BELLA VISTA, Jacinto Machado - SC, 88950000",4835351206,01/06/2010,MDS,Google,-49.7622675,-29.0032222
31460030297,Ouro Fino,3146008,MG,CRAS  ANTONIO DOS SANTOS MACIEL,CRAS,"AFONSO RIBEIRO, 0 - ALTO, Ouro Fino - MG, 37570000",3534413439,22/04/2010,MDS,Google,-46.3712129,-22.2785373
29274003186,Salvador,2927408,BA,CRAS LOBATO,CRAS,"AFRANIO PEIXOTO, 384 - LOBATO, Salvador - BA, 40470630",7133906712,14/08/2004,MDS,Google,-38.4865606,-12.9286789
41157015353,Matinhos,4115705,PR,CRAS ALBATROZ,CRAS,"AFRICA, 0 - ALBATROZ, Matinhos - PR, 83260000",4134733359,20/01/2010,MDS,Google,-48.4997816,-25.7382223
27004001408,Atalaia,2700409,AL,CRAS Antonio Batinga da Silva,CRAS,"AGAMENON COSTA E SILVA, 0 - CENTRO, Atalaia - AL, 57690000",8232641705,01/12/2003,MDS,Google,-36.0225458,-9.5043752
26152004880,Terra Nova,2615201,PE,CRAS CASA DA FAMILIA,CRAS,"AGAMENON MAGALHAES, 121 - CENTRO, Terra Nova - PE, 56190000",8738921019,27/07/2007,MDS,Google,-39.3828364,-8.2228496
41279600945,Turvo,4127965,PR,CRAS - FILADELFIA,CRAS,"AGENOR ALMEIDA CAMARGO, 299 - JARDIM FILADELFIA, Turvo - PR, 85150000",4236421840,09/08/2007,MDS,Google,-51.53926999999999,-25.0461518
31184015036,Conselheiro Pena,3118403,MG,CRAS CENTRO DE REFERENCIA DA ASSISTENCIA SOCIAL DE CONSELHEIRO PENA,CRAS,"AGENOR ANDRADE, 1395 - CENTRO, Conselheiro Pena - MG, 35240000",3332613500,01/01/2010,MDS,Google,-41.469977,-19.17125
29075502903,Caturama,2907558,BA,CASA DA FAMILIA DE CATURAMA,CRAS,"AGENOR BRANDAO, 0 - CENTRO, Caturama - BA, 46575000",7736501184,01/02/2007,MDS,Google,-42.2756861,-13.2257165
32024003555,Guarapari,3202405,ES,CRAS Santa Monica,CRAS,"AGENOR LOPES CANSADO, 280 - Santa Monica, Guarapari - ES, 29220720",2732621727,01/03/2007,MDS,Google,-40.4648664,-20.6216256
31016330111,Alfredo Vasconcelos,3101631,MG,CRAS DE ALFREDO VASCONCELOS,CRAS,"AGOSTINHO BIANCHETTI, 110 - CENTRO, Alfredo Vasconcelos - MG, 36272000",3233671364,01/07/2010,MDS,Google,-43.7710285,-21.1466795
41186006421,Paula Freitas,4118600,PR,CRAS PAULA FREITAS,CRAS,"AGOSTINHO DE SOUZA, 1141 - CENTRO, Paula Freitas - PR, 84630000",4235621384,01/06/2008,MDS,Google,-50.9315856,-26.2099699
21065003768,Matinha,2106508,MA,CRAS CENTRO DE REFERÊNCIA DA ASSISTÊNCIA SOCIAL DE MATINHA,CRAS,"AGOSTINHO OLIVEIRA, 0 - BAIRRO NOVO, Matinha - MA, 65218000",98989118117,02/07/2007,MDS,Google,-45.035773,-3.0972528
31395015062,Manhumirim,3139508,MG,CRAS IRMÃ EULINA,CRAS,"AGRIPINO CASQUEIRO, 388 - NOSSA SENHORA DA PENHA, Manhumirim - MG, 36970000",3333412275,30/05/2009,MDS,Google,-41.9509858,-20.3472622
31062031159,Belo Horizonte,3106200,MG,CRAS VISTA ALEGRE I,CRAS,"AGUANIL, 425 - VISTA ALEGRE, Belo Horizonte - MG, 30518000",3132462008,13/10/2010,MDS,Google,-43.99642559999999,-19.9538114
35092503804,Cajati,3509254,SP,CRAS - Centro de Referência de Assistência Social - CRAS/Vila Antunes,CRAS,"AGUAPEI, 697 - VILA ANTUNES, Cajati - SP, 11950000",1338541248,01/08/2006,MDS,Google,-48.1005995,-24.7335566
31570020462,Salinas,3157005,MG,CRAS FAMILIAS EM AÇÃO,CRAS,"AGUAS FORMOSAS, 134 - CASA BLANCA, Salinas - MG, 39560000",3838411442,03/05/2010,MDS,Google,-40.9387356,-17.0806813
13026034709,Manaus,1302603,AM,CRAS NOSSA SENHORA DA CONCEICÃO,CRAS,"AGUAS MARINHAS, 142 - BRAGA MENDES, Manaus - AM, 69095000",9232154618,17/08/2010,MDS,Google,-59.9417913,-3.0259644
22112005060,Uruçuí,2211209,PI,CRAS AEROPORTO,CRAS,"AIRTON SENA, 870 - AEROPORTO, Uruçuí - PI, 64860000",86988056855,01/09/2008,MDS,Google,-44.5501935,-7.741486099999999
26028004422,Buíque,2602803,PE,CRAS Centro,CRAS,"AIRTON SENNA, 110 - CENTRO, Buíque - PE, 56520000",8738551625,01/09/2005,MDS,Google,-37.1687339,-8.679758099999999
13011002009,Careiro,1301100,AM,CRAS CAREIRO,CRAS,"AJARÁ, 0 - VISTA ALEGR4E, Careiro - AM, 69250000",92992155882,01/05/2005,MDS,Google,-60.3589786,-3.8160914
33039034535,Petrópolis,3303906,RJ,CRAS QUITANDINHA,CRAS,"ALAGOAS, 0 - QUITANDINHA, Petrópolis - RJ, 25650170",2422469150,10/06/2011,MDS,Google,-43.2238845,-22.5328749
21053020507,Imperatriz,2105302,MA,CRAS -  CENTRO DE REFERENCIA DE ASSISTENCIA SOCIAL GRANDE SANTA RITA,CRAS,"ALAGOAS, 1500 - SANTA RITA, Imperatriz - MA, 65919161",99991656154,10/06/2010,MDS,Google,-47.4902337,-5.5050412
28003003574,Aracaju,2800308,SE,CRAS PROF. GONÇALO ROLLEMBERG LEITE,CRAS,"ALAGOAS, 2051 - JOSÉ CONRADO DE ARAÚJO, Aracaju - SE, 49085000",7931792242,01/03/2009,MDS,Google,-37.0851655,-10.9046012
29105002911,Entre Rios,2910503,BA,CRAS BELA VISTA URBANO PERIFERICO,CRAS,"ALAGOINHAS, 23 - BELA VISTA, Entre Rios - BA, 48180000",7534202426,01/02/2006,MDS,Google,-38.090613,-11.9438408
52148304853,Nova Crixás,5214838,GO,CRAS CENTRO DE REFERENCIA DE ASSISTENCIA SOCIAL,CRAS,"ALAMEDA DOM PEDRO II, 0 - SETOR AEROPORTO, Nova Crixás - GO, 76520000",6233853195,14/04/2008,MDS,Google,-50.3424258,-14.0961258
33057503126,Tanguá,3305752,RJ,CRAS VILA CORTES,CRAS,"ALAMEDA I, 9 - VILA CORTES, Tanguá - RJ, 24890000",2137490245,01/01/2000,MDS,Google,-42.71491169999999,-22.7301778
31384000882,Leopoldina,3138401,MG,CRAS QUINTA RESIDENCIA,CRAS,"ALAN KARDECK, 39 - QUINTA RESIDENCIA, Leopoldina - MG, 36700000",3236944223,01/07/2006,MDS,Google,-42.650187,-21.5360443
24148020033,Vera Cruz,2414803,RN,CRAS - CENTRO DE REFERÊNCIA DE ASSISTÊNCIA SOCIAL,CRAS,"ALBANIZA GOMES, 12 - CENTRO, Vera Cruz - RN, 59184000",8432750115,01/03/2010,MDS,Google,NA,NA
29133005012,Ichu,2913309,BA,CRAS José Osvaldo Carneiro,CRAS,"ALBERTINO FERREIRA DA SILVA, 0 - Centro, Ichu - BA, 48725000",75983714014,03/11/2008,MDS,Google,-39.192712,-11.7505583
42086032271,Jaborá,4208609,SC,CRAS,CRAS,"ALBERTO BORDIN II, 60 - Centro, Jaborá - SC, 89677000",4935261623,30/03/2011,MDS,Google,-51.7471385,-27.1719368
23044004038,Fortaleza,2304400,CE,CRAS CASTELÃO,CRAS,"ALBERTO CRAVEIRO, 1480 - BOA VISTA, Fortaleza - CE, 60861212",85989704355,01/12/2005,MDS,Google,-38.51778059999999,-3.7930413
42024030306,Blumenau,4202404,SC,CRAS REGIÃO III,CRAS,"ALBERTO FELICIO ADRIANO, 150 - FORTALEZA, Blumenau - SC, 89055050",4733236711,23/06/2010,MDS,Google,-49.0654943,-26.8784883
24080001696,Mossoró,2408003,RN,CRAS BARROCAS - ANTIGO INDEPEND,CRAS,"ALBERTO MARANHAO, 0 - BARROCAS, Mossoró - RN, 59600000",8433155115,01/09/2005,MDS,Google,-37.3320327,-5.1709412
43213206207,Taquaruçu do Sul,4321329,RS,CRAS - CENTRO DE REFERENCIA DA ASSISTENCIA SOCIAL,CRAS,"ALBERTO PASQUALINI PREDIO B, 277 - CENTRO, Taquaruçu do Sul - RS, 98410000",5537391138,01/01/2008,MDS,Google,-53.467077,-27.3959402
41231011520,Santa Amélia,4123105,PR,CRAS SANTA AMÉLIA,CRAS,"ALBERTO SANTOS DUMONT, 14 - CENTRO, Santa Amélia - PR, 86370000",4335441598,13/08/2007,MDS,Google,-50.4292415,-23.2659005
41043000447,Campo Mourão,4104303,PR,CRAS Centro de Referência da Assistência Social Unidade Leste,CRAS,"ALBERTO SPILKA, 104 - JARDIM SAN MARINO, Campo Mourão - PR, 87309078",4435255291,01/03/2007,MDS,Google,-52.3600073,-24.0250409
42030001207,Caçador,4203006,SC,CRAS MARTELLO,CRAS,"ALBERTO ZANATTA, 210 - MARTELLO, Caçador - SC, 89510815",4935674489,01/06/2007,MDS,Google,-50.9902841,-26.7934946
42082001181,Itajaí,4208203,SC,CRAS IMARUÍ,CRAS,"ALBINO GUGELMIN, 91 - BARRA DO RIO, Itajaí - SC, 88305104",4733494896,01/06/2007,MDS,Google,-48.6757287,-26.8938627
42012731875,Arabutã,4201273,SC,CRAS,CRAS,"ALBINO LOEBLEIN SOBRINHO, 51 - CENTRO, Arabutã - SC, 89740000",4934480499,18/04/2011,MDS,Google,-52.1437914,-27.1602008
35513009538,Sebastianópolis do Sul,3551306,SP,CRAS CENTRO DE REFERENCIA DA ASSISTÊNCIA SOCIAL - CASA DA FAMÍLIA,CRAS,"ALBINO SALVIONI, 327 - CENTRO, Sebastianópolis do Sul - SP, 15180000",1738371257,01/09/2007,MDS,Google,-49.91618860000001,-20.6359179
31092515129,Bugre,3109253,MG,CRAS CASA DA FAMÍLIA,CRAS,"ALCIDES COSTA, 105 - CENTRO, Bugre - MG, 35193000",3333558038,15/09/2011,MDS,Google,-42.258726,-19.419798
29108035235,Feira de Santana,2910800,BA,CRAS - TERRITÓRIO VII,CRAS,"ALCIDES FADIGAS, 305 - QUEIMADINHA, Feira de Santana - BA, 44001072",7532210163,01/02/2012,MDS,Google,-38.9605699,-12.2468203
50062003336,Nova Andradina,5006200,MS,CRAS - CENTRO DE REFERÊNCIA DA ASSISTÊNCIA SOCIAL IRMAN RIBEIRO,CRAS,"ALCIDES MENEZES DE FARIA, 166 - IRMAN RIBEIRO, Nova Andradina - MS, 79750000",6734415987,13/08/2008,MDS,Google,-53.3347419,-22.2478466
52202606246,São Miguel do Passa Quatro,5220264,GO,São Miguel do Passa Quatro,CRAS,"ALCIDES PEREIRA DE CASTRO, 305 - Centro, São Miguel do Passa Quatro - GO, 75185000",6234071152,01/06/2007,MDS,Google,-48.6647871,-17.0546185
15014004205,Belém,1501402,PA,CRAS CREMAÇÃO,CRAS,"ALCINDO CACELA, 2993 - CREMAÇÃO, Belém - PA, 66065205",9132191204,20/01/2005,MDS,Google,-48.476601,-1.4634232
29155002632,Itajuípe,2915502,BA,CRAS CASA DAS FAMÍLIAS,CRAS,"ALCINO NASCIMENTO, 1 - CENTRO, Itajuípe - BA, 45630000",73981972751,05/11/2007,MDS,Google,-39.3709944,-14.6754017
29160002510,Itanhém,2916005,BA,ELOINO MOREIRA,CRAS,"ALCOBAÇA, 50 - SÃO jOAO, Itanhém - BA, 45970000",7332953648,01/05/2007,MDS,Google,-8.979649199999999,-39.54866699999999
31624500251,São João das Missões,3162450,MG,CRAS INDIGENA XAKRIABÁ,CRAS,"ALDEIA SUMARÉ I - RESERVA INDIGENA XACRIABA, 0 - ZONA RURAL, São João das Missões - MG, 39475000",3836138178,01/09/2005,MDS,Google,-47.270408,-22.8244781
26030004690,Cabrobó,2603009,PE,CRAS Indígena TRUKÁ,CRAS,"ALDEIA VILA NOVA INDIGENA KM 15, 15 - ILHA DA ASSUNÇÃO, Cabrobó - PE, 56180000",8738751838,01/08/2007,MDS,Google,-39.35,-8.549999999999999
28056035697,Porto da Folha,2805604,SE,CRAS INDÍGENA - ANTONIO ACACIO SANTIAGO SOBRINHO,CRAS,"ALDEIA XOKÓ ILHA DE SÃO PEDRO, 0 - ALDEIA INDÍGENA, Porto da Folha - SE, 49800000",7933492116,02/05/2012,MDS,Google,-37.3659822,-9.790589899999999
17119530919,Lagoa do Tocantins,1711951,TO,CRAS VANDERLEI BARROS DUARTE,CRAS,"ALDERINA SANTOS VIEIRA, 0 - CENTRO, Lagoa do Tocantins - TO, 77613000",6335221142,17/08/2010,MDS,Google,-47.4882762,-10.3141923
24080020508,Mossoró,2408003,RN,CRAS REDENÇÃO,CRAS,"ALDO DAMIAO, 515 - REDENÇÃO, Mossoró - RN, 59600000",8433155166,01/09/2010,MDS,Google,-37.3519892,-5.1409818
25162037853,Sousa,2516201,PB,CRAS - RONALDO ESTRELA TIBURCIO,CRAS,"ALDO JUSTINO DE OLIVEIRA, 1 - ANDRE GADELHA, Sousa - PB, 58806490",83993513892,18/02/2014,MDS,Google,-38.2439608,-6.7521295
35293003493,Matão,3529302,SP,CRAS SÃO JOSÉ,CRAS,"ALDO NICOLUCCI, 188 - JARDIM SÃO JOSÉ, Matão - SP, 15990000",1633847067,01/09/2006,MDS,Google,-48.3751297,-21.5926837
35244006131,Jacareí,3524402,SP,CENTRO DE REFERENCIA DE ASSISTENCIA SOCIAL - CRAS OESTE,CRAS,"ALE MORAMED AHMED, 270 - JARDIM SÃO PAULO, Jacareí - SP, 12322280",1239568044,01/09/2007,MDS,Google,-45.9869245,-23.3118756
43153020135,Quaraí,4315305,RS,CRAS ACOLHER,CRAS,"ALEGRETE, 895 - CENTENÁRIO, Quaraí - RS, 97560000",5534232867,04/01/2010,MDS,Google,-56.453582,-30.3751904
23088004100,Moraújo,2308807,CE,CRAS RAIMUNDA FREIRE  ALBUQUERQUE,CRAS,"ALEXANDRE CLARINDO, 189 - CENTRO, Moraújo - CE, 62480000",8836421206,01/08/2005,MDS,Google,-40.6817459,-3.4663525
29020005083,Aracatu,2902005,BA,SÁ DUNINHA,CRAS,"ALEXANDRE DE SOUSA JÚNIOR, 28 - RUI BARBOSA, Aracatu - BA, 46130000",7734462133,02/06/2008,MDS,Google,-41.4620373,-14.425756
29007020463,Alagoinhas,2900702,BA,CRAS DO RIACHO DA GUIA,CRAS,"ALEXANDRE FONSECA, 35 - Zona rural, Alagoinhas - BA, 48105000",7534186109,26/04/2010,MDS,Google,-38.4211223,-12.1339689
42031515375,Calmon,4203154,SC,CRAS - CENTRO DE REFERENCIA DE ASSISTENCIA SOCIAL,CRAS,"ALEXANDRE GREGÓRIO, 54 - CENTRO, Calmon - SC, 89430000",4935730038,14/06/2010,MDS,Google,-51.1014279,-26.6006413
41123030839,Japira,4112306,PR,CRAS ANÉSIA  DE ASSIS COSTA,CRAS,"ALEXANDRE LEITE DOS SANTOS, 82 - CENTRO, Japira - PR, 84920000",4335551120,14/12/2010,MDS,Google,-50.1427816,-23.8147869
24138006575,Taboleiro Grande,2413805,RN,CRAS - MAMEDIA FERREIRA NUNES,CRAS,"ALEXANDRE SOARES, 86 - CENTRO, Taboleiro Grande - RN, 59840000",8433750092,01/06/2008,MDS,Google,-38.044005,-5.9300121
24108001810,Riacho de Santana,2410801,RN,CRAS,CRAS,"ALEXANDRINA CAJÉ, 0 - CENTRO, Riacho de Santana - RN, 59987000",8433870192,07/12/2006,MDS,Google,-38.3144193,-6.263129699999999
31043030231,Areado,3104304,MG,CRAS DE AREADO,CRAS,"ALFERES JOSÉ JOAQUIM DA CUNHA BASTOS, 401 - SÃO VICENTE, Areado - MG, 37140000",3532932983,01/03/2011,MDS,Google,-46.1476021,-21.3541312
35032031699,Araraquara,3503208,SP,CRAS JUNIA MARIA DE SANTI ALVES,CRAS,"ALFEU GONÇALVES BELCHIOR, 75 - JARDIM MARIA LUIZA I, Araraquara - SP, 14805260",1633335323,29/03/2011,MDS,Google,-48.1916778,-21.7428508
29310004197,Tanhaçu,2931004,BA,CRAS Lió e Maria,CRAS,"ALFREDO AGUIAR, 0 - CENTRO, Tanhaçu - BA, 46600000",7734591435,01/02/2007,MDS,Google,-41.2431866,-14.02176
33049036013,São Gonçalo,3304904,RJ,CRAS PORTO DO ROSA,CRAS,"ALFREDO BAHIENSE, 1201 - PORTO DO ROSA, São Gonçalo - RJ, 24466460",2126052655,10/11/2011,MDS,Google,-43.0467042,-22.7989055
23128004185,Senador Sá,2312809,CE,CRAS CENTRO DE REFERENCIA DA ASSISTENCIA SOCIAL,CRAS,"ALFREDO CAMPOS, 0 - NOSSA SENHORA DO AMPARO, Senador Sá - CE, 62470000",8836681077,02/06/2008,MDS,Google,-40.4656369,-3.3525952
22077904945,Pau D'Arco do Piauí,2207793,PI,CRAS CENTRO,CRAS,"ALFREDO CARVALHO SIPAUBA, 115 - CENTRO, Pau D'Arco do Piauí - PI, 64295000",8632750050,01/06/2008,MDS,Google,-42.387075,-5.2544564
35434003859,Ribeirão Preto,3543402,SP,CRAS 5 - CENTRO DE REFERENCIA DE ASSISTENCIA SOCIAL,CRAS,"ALFREDO CONDEIXA, 950 - JARDIM MARCHESI, Ribeirão Preto - SP, 14031300",1639640819,01/12/2006,MDS,Google,-47.84042969999999,-21.2026144
29131003344,Ibititá,2913101,BA,CRAS DO RIACHO,CRAS,"ALFREDO MARQUES DOURADO, 0 - CENTRO, Ibititá - BA, 44960000",7491329739,01/11/2005,MDS,Google,-41.9781045,-11.542157
43074537983,Esperança do Sul,4307450,RS,CRAS,CRAS,"ALFREDO SANTO LEDUR, 0 - centro, Esperança do Sul - RS, 98635000",55999674460,11/06/2014,MDS,Google,-54.01944719999999,-27.3262068
43058732611,Coronel Barros,4305871,RS,CRAS de Coronel Barros,CRAS,"ALFREDO STEGLICH SOBRINHO, 346 - Centro, Coronel Barros - RS, 98735000",5533339130,16/05/2011,MDS,Google,-54.0641916,-28.385431
31700001929,Ubaí,3170008,MG,CRAS -Dona Alice Mendes Almeida,CRAS,"ALFREDO VELOSO, 97 - MACAMBIRA, Ubaí - MG, 39320000",38999269867,01/08/2007,MDS,Google,-44.7846834,-16.2926079
29274020632,Salvador,2927408,BA,CRAS  CALABETÃO,CRAS,"ALIANCA, 6 - CALABETÃO, Salvador - BA, 41227170",7136115254,30/05/2011,MDS,Google,-38.4682574,-12.9324578
33001504194,Aperibé,3300159,RJ,CRAS CENTRO,CRAS,"ALIPIO MATIAS BORGES, 0 - CENTRO, Aperibé - RJ, 28495000",2238641365,01/01/2004,MDS,Google,-42.1051878,-21.6233651
42153500642,Saltinho,4215356,SC,CENTRO DE REFERÊNCIA DE ASSISTÊNCIA SOCIAL,CRAS,"ALIPIO XAVIER SIMÕES, 525 - CENTRO, Saltinho - SC, 89981000",4936560044,01/10/2006,MDS,Google,-53.0595804,-26.6074179
26034538840,Camaragibe,2603454,PE,CRAS III PARQUE CAMARAGIBE,CRAS,"ALLAN KARDEC, 59 - VILA DA INABI, Camaragibe - PE, 54753000",8131292094,23/09/2017,MDS,Google,-34.9698412,-8.0179004
31405504613,Mata Verde,3140555,MG,CENTRO DE REFERÊNCIA DA ASSISTÊNCIA SOCIAL,CRAS,"ALMENARA, 71 - PLANALTO, Mata Verde - MG, 39915000",3337221016,01/05/2007,MDS,Google,-40.7377135,-15.69007
21044020324,Gonçalves Dias,2104404,MA,CRAS II,CRAS,"ALMIR ASSIS, 0 - CENTRO, Gonçalves Dias - MA, 65755000",8699544739,01/12/2009,MDS,Google,-44.3005336,-5.1566055
15019504924,Cachoeira do Piriá,1501956,PA,casa da familia,CRAS,"ALMIR GABRIEL, 0 - CENTRO, Cachoeira do Piriá - PA, 68617000",9134471132,01/08/2008,MDS,Google,NA,NA
42082001076,Itajaí,4208203,SC,CRAS NOSSA SENHORA DAS GRAÇAS,CRAS,"ALMIRANTE BARROSO, 450 - CENTRO, Itajaí - SC, 88303040",4732488522,21/12/2005,MDS,Google,-48.666957,-26.9084411
15080004469,Tomé-Açu,1508001,PA,Centro de Referencia da Assistencia Social,CRAS,"ALMIRANTE CABRAL, 0 - Centro, Tomé-Açu - PA, 68682000",9137341142,01/01/2006,MDS,Google,-48.2440852,-2.4214138
43116001228,Liberato Salzano,4311601,RS,CRAS CENTRO DE REFERENCIA DE ASSISTENCIA SOCIAL,CRAS,"ALMIRANTE TAMADARÉ, 140 - CENTRO, Liberato Salzano - RS, 99690000",5537551262,01/07/2004,MDS,Google,-49.3041525,-25.3193922
29250031757,Planalto,2925006,BA,CRAS,CRAS,"ALOISIO LACERDA, 120 - SENHOR DO BOMFIM, Planalto - BA, 45190000",7734342137,01/04/2011,MDS,Google,-40.4830063,-14.6640474
43156020138,Rio Grande,4315602,RS,CRAS Hidraúlica,CRAS,"ALTAMIR DE LACERDA NASCIMENTO, 904 - Hidraúlica, Rio Grande - RS, 96211280",5332314379,27/09/2010,MDS,Google,-52.1242604,-32.0504201
52193505039,Santa Isabel,5219357,GO,CASA DA FAMILIA SANTA ISABELENSE,CRAS,"ALTINA DE SOUZA LOBO, 1 - CENTRO, Santa Isabel - GO, 74320000",6233581307,01/06/2008,MDS,Google,-49.424526,-15.3069859
29024006148,Aurelino Leal,2902401,BA,CRAS Aurelino Leal,CRAS,"ALTINO RAMOS, 46 - CENTRO, Aurelino Leal - BA, 45675000",7335541610,01/12/2006,MDS,Google,-39.409244,-14.3640421
29166002592,Itapitanga,2916609,BA,CRAS CENTRO DO VIVER,CRAS,"ALTO DA COLINA, 13 - ALTO DA COLINA, Itapitanga - BA, 45645000",7332462440,01/09/2004,MDS,Google,-39.5683131,-14.4188286
23080003834,Massapê,2308005,CE,CRAS FRANCISCA LIMA ALBUQUERQUE,CRAS,"ALTO DA CONQUISTA, 1 - NOSSA SENHORA DE FATIMA, Massapê - CE, 62140000",8836431097,01/04/2006,MDS,Google,-40.33750149999999,-3.5313677
24062003801,Lagoa d'Anta,2406205,RN,CENTRO DE REFERÊNCIA DE ASSISTÊNCIA SOCIAL,CRAS,"ALTO DA ESPERANÇA, 6 - CENTRO, Lagoa d'Anta - RN, 59227000",8432870123,01/02/2007,MDS,Google,-35.5963581,-6.3909139
29044004401,Brejolândia,2904407,BA,CRAS - CENTRO DE REFERÊNCIA DE ASSISTÊNCIA SOCIAL,CRAS,"ALTO DO AEROPORTO, 1 - CENTRO, Brejolândia - BA, 47750000",7736562147,01/05/2006,MDS,Google,-44.0043332,-12.6995591
26091504684,Manari,2609154,PE,CRAS - Centro de Referência da Assistência Social,CRAS,"ALTO DO MORÇEGO, 25 - CENTRO, Manari - PE, 56565000",8738407117,01/06/2006,MDS,Google,-37.6316378,-8.965321699999999
27064020047,Pão de Açúcar,2706406,AL,CRAS TERRA DO SOL,CRAS,"ALTO FONSECA, 123 - CENTRO, Pão de Açúcar - AL, 57400000",82996998819,15/08/2010,MDS,Google,-37.4340784,-9.742294
52158006513,Palmelo,5215801,GO,CRAS - CENTRO DE REFERÊNCIA DE ASSISTÊNCIA SOCIAL PROFESSORA VANIA ARANTES DAMO,CRAS,"ALUISIO AESSIO GOMIDE, ESQ. C/ AV. PE. JOAO SAINT CLAIR, 350 - CENTRO, Palmelo - GO, 75210000",6436941373,01/06/2008,MDS,Google,-48.4251709,-17.3254677
15035020192,Irituia,1503507,PA,CRAS CARMOSINHO MARIA DA SILVA,CRAS,"ALUÍSIO CHAVES, 280 - SÃO FRANCISCO, Irituia - PA, 68655000",9134431337,21/04/2010,MDS,Google,-47.4882141,-1.7441342
35503036481,São Paulo,3550308,SP,CRAS PEDREIRA,CRAS,"ALVARENGA, 3657 - PEDREIRA, São Paulo - SP, 4474340",1156732516,27/11/2012,MDS,Google,-46.6441515,-23.7031907
31107020429,Cambuquira,3110707,MG,CRAS MAIS APOIO AS FAMÍLIAS,CRAS,"ALVARES CABRAL, 178 - REGINA COELI, Cambuquira - MG, 37420000",3532512002,01/10/2009,MDS,Google,-45.2912534,-21.8584928
43136530423,Palmares do Sul,4313656,RS,CRAS CENTRAL,CRAS,"ALVARO ALVES CAMARGO, 1564 - CENTRO, Palmares do Sul - RS, 95540000",5136681853,20/10/2010,MDS,Google,-50.517377,-30.2650824
31593500733,Santa Rita de Minas,3159357,MG,CASA DA FAMÍLIA,CRAS,"ALVARO CORREA DE FARIA, 80 - CENTRO, Santa Rita de Minas - MG, 35326000",3333266416,01/02/2007,MDS,Google,-42.1345979,-19.874626
35563030485,Valparaíso,3556305,SP,CRAS - MARIA IGNÁCIA CORREA FERNANDES,CRAS,"ALVARO DE PAULA, 55 - ASA BRANCA, Valparaíso - SP, 16880000",1834014269,09/09/2010,MDS,Google,-50.8615055,-21.2257953
33002302013,Armação dos Búzios,3300233,RJ,CRAS ALVARO ELIDIO GONÇALVES,CRAS,"ALVARO ELIDIO GONÇALVES, 317 - RASA, Armação dos Búzios - RJ, 28950000",2226208959,01/03/2002,MDS,Google,-41.969894,-22.7436827
26074014779,Itacuruba,2607406,PE,CRAS PORTAL DA FAMILIA,CRAS,"ALVARO MAGALHAES DE ARAUJO, 413 - CENTRO, Itacuruba - PE, 56430000",8738931174,12/08/2006,MDS,Google,-38.6867865,-8.7260832
29001030329,Abaíra,2900108,BA,CRAS - CENTRO DE REFERENCIA DE ASSISTENCIA SOCIAL,CRAS,"ALVIDES MOREIRA NEVES, 62 - CENTRO, Abaíra - BA, 46690000",7734762220,24/03/2010,MDS,Google,-41.6621647,-13.2504131
35499036329,São José dos Campos,3549904,SP,CRAS ALTO DA PONTE,CRAS,"ALZIRO LEBRÃO, 0 - ALTO DA PONTE, São José dos Campos - SP, 12212500",1239225933,01/06/2012,MDS,Google,-45.9001404,-23.1522659
15002030281,Acará,1500206,PA,CRAS QUILOMBOLA,CRAS,"ALÇA VIÁRIA KM 32, 0 - ZONA RURAL, Acará - PA, 68690000",9137321568,01/12/2004,MDS,Google,-48.5267992,-1.6875954
31355002025,Jequeri,3135506,MG,CRAS,CRAS,"AMADOR UBALDO RIBEIRO, 19 - JOÃO BOSCO CALAIS, Jequeri - MG, 35390000",3138771693,01/05/2004,MDS,Google,-42.67034899999999,-20.455448
26037004434,Canhotinho,2603702,PE,CASA DAS FAMILIAS,CRAS,"AMAPA, 5 - centro, Canhotinho - PE, 55420000",8737811314,01/10/2005,MDS,Google,-52.0029565,0.9019925
35478037697,Santo André,3547809,SP,CRAS ALZIRA FRANCO - OTAVIO DE ABREU,CRAS,"AMAPOLA, 0 - JARDIM ALZIRA FRANCO, Santo André - SP, 9274125",1144372932,31/10/2013,MDS,Google,-46.4944808,-23.6532707
33027037999,Maricá,3302700,RJ,CRAS CEU,CRAS,"AMARAL PEIXOTO KM 27, 0 - MUMBUCA, Maricá - RJ, 24912760",2126340823,16/05/2014,MDS,Google,-42.8281348,-22.9079198
24067020316,Lajes,2406700,RN,CRAS 2 Centro de Referência de Assistência Social,CRAS,"AMARANTE, 56 - São Judas Tadeu, Lajes - RN, 59535000",8435322649,01/03/2010,MDS,Google,-36.2444833,-5.699659599999999
26133036207,São Joaquim do Monte,2613305,PE,CRAS JOSÉ JOAQUIM FLORÊNCIO,CRAS,"AMARO CABRAL DOS SANTOS, 0 - CENTRO, São Joaquim do Monte - PE, 55670000",8137531023,12/01/2009,MDS,Google,-35.8141362,-8.432001999999999
35032036203,Araraquara,3503208,SP,CRAS BEATRIZ RAMA PORSANI,CRAS,"AMAURI PINTO DE CASTRO MONTEIRO, 957 - PARQUE CECAP II, Araraquara - SP, 14808225",1633317756,30/03/2012,MDS,Google,-48.1423464,-21.834162
21091020224,Presidente Dutra,2109106,MA,CRAS II - SANTA MARIA,CRAS,"AMAZONAS, 0 - SANTA MARIA, Presidente Dutra - MA, 65760000",99988483949,01/12/2009,MDS,Google,-44.4874661,-5.3093796
42094531369,Lajeado Grande,4209458,SC,CRAS,CRAS,"AMAZONAS, 221 - centro, Lajeado Grande - SC, 89828000",4933550175,04/02/2011,MDS,Google,-52.56358179999999,-26.8597897
43230004325,Viamão,4323002,RS,CRAS MONTE ALEGRE,CRAS,"AMAZONAS, 740 - MONTE ALEGRE, Viamão - RS, 94480010",5134937602,01/08/2004,MDS,Google,-51.1016804,-30.0588671
26111020433,Petrolina,2611101,PE,CRAS JOSÉ E MARIA,CRAS,"AMAZONAS, 81 - JOSÉ E MARIA, Petrolina - PE, 56320580",8738645448,07/04/2010,MDS,Google,-40.495919,-9.366126999999999
35281010207,Macaubal,3528106,SP,CRAS CENTRO DE REFERÊNCIA DE ASSISTÊNCIA SOCIAL,CRAS,"AMAZONAS, 829 - JARDIM NOSSA SENHORA APARECIDA, Macaubal - SP, 15270000",1738743021,10/09/2007,MDS,Google,-65.8560646,-3.4168427
26005004575,Águas Belas,2600500,PE,CRAS ZONA URBANA,CRAS,"AMAZONIA, 20 - CENTRO, Águas Belas - PE, 55340000",8737751364,01/03/2004,MDS,Google,-37.1178147,-9.115511
33045500498,Rio de Janeiro,3304557,RJ,CRAS GERMINAL DOMINGUES,CRAS,"AMBIRÉ CAVALCANTI, 95 - RIO COMPRIDO, Rio de Janeiro - RJ, 20250490",2122933399,01/02/2005,MDS,Google,-43.2084121,-22.9223086
29202003067,Malhada,2920205,BA,CRAS CENTRO DE REFERENCIA DA ASSISTENCIA SOCIAL - CASA DAS FAMÍLIAS,CRAS,"AMBROSIO CHAPÉU, 0 - CENTRO, Malhada - BA, 46440000",7736912145,01/12/2007,MDS,Google,-43.7690335,-14.3375835
15019004402,Bujaru,1501907,PA,CENTRO DE REFERÊNCIA DE ASSISTÊNCIA SOCIAL CASA DAS FAMÍLIAS,CRAS,"AMBRÓSIO CORRÊA, 37 - PALHA, Bujaru - PA, 68670000",9137461446,01/09/2005,MDS,Google,-48.038708,-1.5153531
15042038050,Marabá,1504208,PA,CRAS AMAPÁ,CRAS,"AMERICO CASTANHEIRA, 40 - AMAPÁ, Marabá - PA, 68500000",9433241282,01/07/2014,MDS,Google,-49.1258935,-5.3602051
13006003096,Benjamin Constant,1300607,AM,CRAS - Benjamin Constant,CRAS,"AMERICO MACIEL, 0 - COLONIA, Benjamin Constant - AM, 69630000",9734155900,01/05/2003,MDS,Google,-70.0267716,-4.3886913
35157003120,Ferraz de Vasconcelos,3515707,SP,CRAS PARQUE SÃO FRANCISCO,CRAS,"AMERICO TRUFELLI, 60 - PARQUE SÃO FRANCISCO, Ferraz de Vasconcelos - SP, 8527052",1146783716,01/03/2006,MDS,Google,-46.3810592,-23.5544829
13040603660,Tabatinga,1304062,AM,Casa da Esperança,CRAS,"AMIZADE, 0 - CENTRO, Tabatinga - AM, 69640000",9734125312,01/01/2005,MDS,Google,-69.9369402,-4.2305839
35190703790,Hortolândia,3519071,SP,CRAS JARDIM PRIMAVERA,CRAS,"AMOREIRA, 50 - JARDIM PRIMAVERA, Hortolândia - SP, 13183815",1939090627,09/08/2019,MDS,Google,-47.2039885,-22.8752263
31470003048,Paracatu,3147006,MG,CRAS NOVO HORIZONTE,CRAS,"AMÉLIA GOTLIB LEITE, 411 - NOSSA SENHORA DE FÁTIMA, Paracatu - MG, 38600000",3836713031,01/09/2006,MDS,Google,-46.8579218,-17.223435
32006038528,Aracruz,3200607,ES,CRAS MOROBÁ,CRAS,"AMÉRICA DO SUL, 7 - MOROBÁ, Aracruz - ES, 29192703",2732707429,01/04/2016,MDS,Google,-40.258526,-19.824913
31121015059,Caparaó,3112109,MG,CRAS Espaço das Famílias,CRAS,"AMÉRICO VESPÚCIO DE CARVALHO, 120 - CENTRO, Caparaó - MG, 36834000",3237471414,01/06/2009,MDS,Google,-41.9057437,-20.5255718
29245030671,Pindaí,2924504,BA,CRAS Centro de Referência de Assistência Social,CRAS,"ANA ANGÉLICA, 0 - CENTRO, Pindaí - BA, 46360000",7736672167,03/12/2010,MDS,Google,-42.6883043,-14.4908211
24092002010,Passagem,2409209,RN,CRAS - Centro de Referencia da Assistencial Social - Passagem/RN,CRAS,"ANA IZABEL CHAVES, 25 - Cipoal, Passagem - RN, 59259000",8432860026,01/04/2007,MDS,Google,-35.377839,-6.279187599999999
23018520503,Banabuiú,2301851,CE,CRAS ROSALINA LIMA DE SOUSA,CRAS,"ANA MARIA DA CONCEIÇÃO, 184 - Centro, Banabuiú - CE, 63960000",88996968797,26/03/2010,MDS,Google,-38.9229353,-5.3017451
17124509316,Luzinópolis,1712454,TO,CRAS CENTRO DE REFERENCIA DE ASSISTENCIA SOCIAL,CRAS,"ANA MOREIRA, 187 - CENTRO, Luzinópolis - TO, 77903000",6334911120,01/05/2007,MDS,Google,-47.8577518,-6.1915322
29056005084,Camacan,2905602,BA,CRAS - CENTRO DE REFERENCIA DE ASSISTENCIA SOCIAL  - CASA DAS FAMILIAS,CRAS,"ANA MOURA, 0 - JOANA ANGÉLICA, Camacan - BA, 45880000",7332833254,01/07/2008,MDS,Google,-39.4891035,-15.4153748
33045500715,Rio de Janeiro,3304557,RJ,CRAS MARIA DA LUZ DOS SANTOS,CRAS,"ANA QUINTÃO, 380 - PIEDADE, Rio de Janeiro - RJ, 20751240",2131117545,03/01/2000,MDS,Google,-43.3086821,-22.8786538
26011004627,Araripina,2601102,PE,CRAS - MARIA COELHO DANTAS (DONA MIRINHA),CRAS,"ANA RAMOS LACERDA, 0 - CENTRO, Araripina - PE, 56280000",8791073420,01/11/2005,MDS,Google,-40.4952997,-7.5753561
42168031651,São José do Cerrito,4216800,SC,CRAS VÓ MARIA,CRAS,"ANACLETO DA SILVA ORTIZ, 307 - CENTRO, São José do Cerrito - SC, 88570000",4932421303,03/11/2010,MDS,Google,-50.5777079,-27.6704059
41058020549,Colombo,4105805,PR,CRAS GRACIOSA,CRAS,"ANAIR BONATO TOSIN, 677 - CENTRO INDUSTRIAL MAUA, Colombo - PR, 83413580",4136757237,01/03/2010,MDS,Google,-49.1628756,-25.3875015
23008002349,Antonina do Norte,2300804,CE,CRAS - Centro de Referência de Assistência Social,CRAS,"ANANIAS DE MATOS ARRAIS, 250 - Serraria I, Antonina do Norte - CE, 63570000",8835251552,01/09/2005,MDS,Google,-39.9787274,-6.7765264
51026000639,Campinápolis,5102603,MT,EDUARDO GONCALVES COELHO,CRAS,"ANASTACIO FELICIANO ALVES, 640 - SETOR CASTILHO, Campinápolis - MT, 78630000",6634371831,01/10/2006,MDS,Google,-52.79893980000001,-14.536336
42158006569,São Bento do Sul,4215802,SC,CRAS Vereadora Rita Maria Dums,CRAS,"ANASTACIO RUNSCHKA, 80 - OXFORD, São Bento do Sul - SC, 89285780",4736266615,01/09/2006,MDS,Google,-49.40684659999999,-26.2078877
23131020057,Tabuleiro do Norte,2313104,CE,CRAS RURAL,CRAS,"ANCELMO INACIO, 614 - OLHO DAGUA DA BICA, Tabuleiro do Norte - CE, 62960000",8834244087,04/06/2010,MDS,Google,-38.012606,-5.387881399999999
41015000438,Arapongas,4101507,PR,CRAS ZONA SUL,CRAS,"ANDORINHA DO RIO, 0 - PARQUE INDUSTRIAL, Arapongas - PR, 86706695",4339021304,01/12/2006,MDS,Google,-51.4238393,-23.4481635
31637038604,São Lourenço,3163706,MG,CRAS  ESTAÇÃO,CRAS,"ANDRADE FIGUEIRA, 68 - ESTAÇÃO, São Lourenço - MG, 37470000",3533313310,20/04/2016,MDS,Google,-45.0496474,-22.1109642
41083006399,Foz do Iguaçu,4108304,PR,CRAS NORTE,CRAS,"ANDRADINA, 0 - JARDIM ALMADA, Foz do Iguaçu - PR, 85869380",4539013268,26/06/2008,MDS,Google,-54.561124,-25.4834352
35556003933,Uchoa,3555604,SP,CRAS SANTA ISABEL,CRAS,"ANDRE CAPARROZ GARCIA, 509 - SAO MIGUEL, Uchoa - SP, 15890000",1731011214,01/08/2007,MDS,Google,-49.1722703,-20.9479308
22009505080,Aroeiras do Itaim,2200954,PI,CRAS CENTRO DE ASSISTÊNCIA SOCIAL,CRAS,"ANDRE DE MOURA LEAL, 0 - CENTRO, Aroeiras do Itaim - PI, 64612000",8934218033,01/09/2007,MDS,Google,-41.4682804,-7.0804415
35150002513,Embu,3515004,SP,CRAS CENTRO,CRAS,"ANDRONICO DOS PRAZERES GONÇALVES, 114 - CENTRO, Embu - SP, 6804200",1147853598,03/01/2005,MDS,Google,-46.853155,-23.648017
21002000443,Alcântara,2100204,MA,CRAS ( CENTRO DE REFERENCIA DA ASSISTENCIA SOCIAL),CRAS,"ANEL DE CONTORNO, 0 - CARAVELAS, Alcântara - MA, 65250000",98992255289,01/07/2005,MDS,Google,-44.4129675,-2.4001691
42133530021,Ponte Alta do Norte,4213351,SC,CRAS - CENTRO DE REFERÊNCIA DE ASSISTÊNCIA SOCIAL,CRAS,"ANERCINDO DA SILVA CALOMENO, 300 - São Sebastião, Ponte Alta do Norte - SC, 89535000",4932417614,03/01/2010,MDS,Google,-50.46909120000001,-27.1582542
27075035901,Porto Real do Colégio,2707503,AL,CRAS CANTINHO DA FAMILIA,CRAS,"ANEXO B, 2 - centro, Porto Real do Colégio - AL, 57290000",8235531289,02/01/2012,MDS,Google,-36.8362412,-10.1854003
22046004783,Hugo Napoleão,2204600,PI,CRAS HUGO NAPOLEÃO,CRAS,"ANGELIM, 0 - ANGELIM, Hugo Napoleão - PI, 64470000",8632991121,01/09/2008,MDS,Google,NA,NA
42055020584,Fraiburgo,4205506,SC,CRAS CENTRO DE REFERENCIA DE ASSISTENCIA SOCIAL,CRAS,"ANGELIN GRIGOLO, 12 - CENTRO, Fraiburgo - SC, 89580000",493908-2025,10/01/2010,MDS,Google,-50.9403872,-27.0524343
42116001474,Nova Veneza,4211603,SC,CRAS BORTOLOTTO,CRAS,"ANGELO BORTOLOTTO, 1 - BORTOLOTTO, Nova Veneza - SC, 88865000",4834362357,01/10/2007,MDS,Google,-49.50264749999999,-28.6438042
31702001075,Uberlândia,3170206,MG,CRAS - CASA DA FAMÍLIA SÃO JORGE,CRAS,"ANGELO CUNHA, 387 - SÃO JORGE, Uberlândia - MG, 38410206",3432140976,24/08/2006,MDS,Google,-48.228613,-18.9552108
43009030113,Aratiba,4300901,RS,CRAS,CRAS,"ANGELO EMILIO GRANDO, 48 - CENTRO, Aratiba - RS, 99770000",5433761827,18/05/2010,MDS,Google,-52.2997568,-27.399286
41137001725,Londrina,4113700,PR,CRAS OESTE B,CRAS,"ANGELO GAIOTTO, 0 - JARDIM SANTA RITA, Londrina - PR, 86072260",4333780598,01/11/2005,MDS,Google,-51.2034318,-23.2890581
35269003035,Limeira,3526902,SP,CRAS PARQUE NOSSA SENHORA DAS DORES,CRAS,"ANGELO PICCIN, 569 - JARDIM CAIEIRA, Limeira - SP, 13483211",1934419049,10/01/2006,MDS,Google,-47.4398671,-22.5583885
31627001229,São João do Paraíso,3162708,MG,CRAS SÃO JOÃOZINHO,CRAS,"ANGELO PINHEIRO DE CARVALHO, 995 - SÃO JOÃOZINHO, São João do Paraíso - MG, 39540000",3838322059,01/06/2006,MDS,Google,-42.02626,-15.3162317
35024031529,Anhumas,3502408,SP,CRAS,CRAS,"ANGELO SEREGUETTI, 566 - CENTRO, Anhumas - SP, 19580000",18997420607,01/03/2011,MDS,Google,-51.49495599999999,-22.2740242
15083504489,Vitória do Xingu,1508357,PA,CENTRO DE REFERÊNCIA DE ASSISTÊNCIA SOCIAL,CRAS,"ANISIO MARTINS, 0 - CENTRO, Vitória do Xingu - PA, 68383000",93991555045,01/03/2007,MDS,Google,-52.0121072,-2.889395
15044020486,Marapanim,1504406,PA,CRAS ELZA PEREIRA BENTES RIBEIRO,CRAS,"ANISIO OEIRAS, 0 - BAIRRO NOVO, Marapanim - PA, 68760000",9137231466,13/05/2010,MDS,Google,-47.69479459999999,-0.7108734999999999
21059800932,Lajeado Novo,2105989,MA,CRAS DE LAJEADO NOVO,CRAS,"ANITA VIANA, 0 - LAJES, Lajeado Novo - MA, 65937000",99984071450,01/12/2006,MDS,Google,-47.0383456,-6.191205699999999
35210001860,Iperó,3521002,SP,CRAS - Centro de Referência de Assistência Social,CRAS,"ANITA, 160 - GEORGE OETTERER, Iperó - SP, 18560000",1532667353,01/08/2005,MDS,Google,-47.55756179999999,-23.4489132
42042000755,Chapecó,4204202,SC,CRAS SÃO PEDRO,CRAS,"ANSELMO SANTA CATARINA, 697 - PRESIDENTE MEDICI, Chapecó - SC, 89802100",4920499251,01/05/1999,MDS,Google,-52.5949365,-27.0947975
32032002619,Linhares,3203205,ES,CRAS - CENTRO DE REFERÊNCIA DE ASSISTÊNCIA SOCIAL DO SANTA CRUZ,CRAS,"ANTENOR ELIAS, 505 - SANTA CRUZ, Linhares - ES, 29908360",2733738507,01/11/2005,MDS,Google,-40.0582516,-19.3354257
31353006386,Japaraíba,3135308,MG,CRAS - CASA DA FAMILIA MARIA MARGARIDA DE MENEZES,CRAS,"ANTENOR FLORENCIO DIAS, 498 - SAO JOSE, Japaraíba - MG, 35580000",3733541388,13/12/2010,MDS,Google,-45.5089305,-20.141052
21066020505,Matões,2106607,MA,CRAS II - MATÕES-MA,CRAS,"ANTENOR PEREIRA DE BRITO, 0 - MATADOURO, Matões - MA, 65645000",99988297631,28/04/2010,MDS,Google,-43.2037954,-5.5267728
31040005005,Araxá,3104007,MG,CRAS FRANCISCO DUARTE,CRAS,"ANTENOR SILVA SOARES, 300 - FRANCISCO DUARTE, Araxá - MG, 38183970",3436913118,01/01/2010,MDS,Google,-46.941563,-19.5731007
31288033157,Guidoval,3128808,MG,CRAS GUIDOVAL,CRAS,"ANTERO FURTADO DE MENDONÇA, 0 - CENTRO, Guidoval - MG, 36515000",3235781193,01/11/2010,MDS,Google,-42.7964718,-21.1531147
42185031333,Treze Tílias,4218509,SC,CRAS TREZE TÍLIAS,CRAS,"ANTON ALTENBURGER, 130 - Santa Catarina, Treze Tílias - SC, 89650000",4935371213,14/03/2011,MDS,Google,-51.412975,-26.9996809
24137001389,Sítio Novo,2413706,RN,CRAS SITIO NOVO,CRAS,"ANTONIA FERREIRA LIMA, 13 - CENTRO, Sítio Novo - RN, 59440000",8432520065,01/06/2006,MDS,Google,-35.9086355,-6.1040393
35408002760,Potirendaba,3540804,SP,CRAS CENTRO DE REFERENCIA DA ASSISTENCIA SOCIAL,CRAS,"ANTONIETA BRIGO VENDRASCO, 1127 - JARDIM PANORAMA, Potirendaba - SP, 15105000",1738279276,08/12/2005,MDS,Google,-46.700316,-23.6022989
33019002426,Itaboraí,3301900,RJ,CRAS - APOLO,CRAS,"ANTONIETA RODRIGUES VIANA, 0 - APOLLO II, Itaboraí - RJ, 24858564",2136395398,01/02/2006,MDS,Google,-42.9406688,-22.7804512
23066020620,Itatira,2306603,CE,CRAS ITATIRA SEDE,CRAS,"ANTONIO ALVES GUERRA, 621 - CENTRO, Itatira - CE, 62720000",8834361054,01/01/2010,MDS,Google,-39.6156091,-4.5308576
24102001805,Portalegre,2410207,RN,CENTRO DE REFERÊNCIA DE ASSISTÊNCIA SOCIAL - CRAS I,CRAS,"ANTONIO ALVINO DE SOUZA, 7 - CENTRO, Portalegre - RN, 59810000",8433772308,01/03/2007,MDS,Google,-37.9857655,-6.027154
29266505023,Ribeirão do Largo,2926657,BA,CRAS,CRAS,"ANTONIO AQUINO DE CARVALHO, 0 - São João Batista, Ribeirão do Largo - BA, 45155000",7734781095,01/07/2007,MDS,Google,-40.7428067,-15.4592824
23042038830,Crato,2304202,CE,CRAS 06 PONTA DA SERRA,CRAS,"ANTONIO ARAJANO, 0 - ZONA RURAL, Crato - CE, 63100000",8835216321,18/09/2017,MDS,Google,-39.390242,-7.205175199999999
31293000155,Iapu,3129301,MG,CENTRO DE REFERENCIA DE ASSISTENCIA SOCIAL,CRAS,"ANTONIO AUGUSTO FERNANDES, 23 - CENTRO, Iapu - MG, 35190000",3333551424,01/04/2007,MDS,Google,-42.2128005,-19.4405812
29110002596,Floresta Azul,2911006,BA,CENTRO DE REFERENCIA DE ASSISTENCIA SOCIAL,CRAS,"ANTONIO BALBINO, 73 - CENTRO, Floresta Azul - BA, 45740000",73981161744,01/10/2005,MDS,Google,-39.6576921,-14.8600341
43089015417,Getúlio Vargas,4308904,RS,CRAS - A CASA DA FAMILIA,CRAS,"ANTONIO BALBINOT, 901 - SÃO PELEGRINO, Getúlio Vargas - RS, 99900000",5433411977,27/08/2009,MDS,Google,-52.2323523,-27.8891609
51039515044,Glória D'Oeste,5103957,MT,CRAS - CENTRO DE REFERENCIA DE ASSISTÊNCIA SOCIAL  ANGELINA EGUES,CRAS,"ANTONIO BARBOSA, 2325 - ADEVIDON VIEIRA DOS SANTOS, Glória D'Oeste - MT, 78293000",6532751133,06/01/2009,MDS,Google,-58.23486380000001,-15.9411375
50008501559,Angélica,5000856,MS,CRAS ESPERANÇA,CRAS,"ANTONIO BASILIO DE LIMA, 410 - IMPERIAL, Angélica - MS, 79785000",6734461193,01/08/2007,MDS,Google,-53.7767817,-22.1594209
24122002103,São José de Mipibu,2412203,RN,CRAS - CENTRO DE REFERÊNCIA DE ASSISTÊNCIA SOCIAL,CRAS,"ANTONIO BASILIO, 69 - CENTRO, São José de Mipibu - RN, 59162000",8432732246,01/02/2004,MDS,Google,-35.237642,-6.072976
41253500069,São Jorge do Patrocínio,4125357,PR,CRAS CENTRO DE REFERENCIA DA ASSISTENCIA SOCIAL DE SÃO JORGE DO PATROCINIO,CRAS,"ANTONIO BONATO, 38 - JARDIM NOVO HORIZONTE, São Jorge do Patrocínio - PR, 87555000",4436348068,01/07/2006,MDS,Google,-53.8802894,-23.7660039
52078031137,Firminópolis,5207808,GO,CRAS,CRAS,"ANTONIO BORGES CAMPOS, 285 - VILA PALESTINA, Firminópolis - GO, 76105000",6488993746,03/11/2010,MDS,Google,-50.3036097,-16.5634273
29132003072,Ibotirama,2913200,BA,CRAS DR. DJALMA PAIVA BERNARDES,CRAS,"ANTONIO BORGES LARANJEIRA, 445 - SÃO FRANCISCO, Ibotirama - BA, 47520000",7736981512,14/08/2007,MDS,Google,-43.2145045,-12.178774
52054002192,Ceres,5205406,GO,Centro Municipal de Assistência Social,CRAS,"ANTONIO BORGES TEIXEIRA, 0 - vila nova, Ceres - GO, 76300000",6233232489,01/05/2004,MDS,Google,-49.6043898,-15.3052868
29055020470,Caldeirão Grande,2905503,BA,CRAS TIA BEBÉ,CRAS,"ANTONIO CARLOS MAGALHÃES, 0 - CENTRO, Caldeirão Grande - BA, 44750000",7436342263,19/04/2010,MDS,Google,-40.1862129,-11.044826
22002001694,Água Branca,2200202,PI,CRAS VEREADOR JOSE GUTEMBERG LEAL DE OLIVEIRA,CRAS,"ANTONIO CARLOS SOARES, 0 - CENTRO, Água Branca - PI, 64460000",86,01/07/2007,MDS,Google,-42.6348858,-5.8916909
31713000074,Viçosa,3171303,MG,CRAS SUL,CRAS,"ANTONIO CEZÁRIO FIALHO, 26 - FÁTIMA, Viçosa - MG, 36572188",3138917769,03/07/2006,MDS,Google,-42.88518920000001,-20.7651253
41100000837,Iguaraçu,4110003,PR,CRAS - Centro de Referência de Assistência Social,CRAS,"ANTONIO CEZÁRIO, 118 - JARDIM COPACABANA, Iguaraçu - PR, 86750000",4432481172,20/02/2006,MDS,Google,-51.8284046,-23.1963868
15035004876,Irituia,1503507,PA,CRAS ADELINA CORDEIRO AMARAL,CRAS,"ANTONIO CORREA DE LIMA, 0 - SÃO BENEDITO, Irituia - PA, 68655000",9134431145,01/08/2008,MDS,Google,-47.44641319999999,-1.7702033
32006037801,Aracruz,3200607,ES,CRAS SANTA CRUZ,CRAS,"ANTONIO COUTINHO, 0 - SANTA CRUZ, Aracruz - ES, 29199562",2732707432,02/01/2014,MDS,Google,-40.2685503,-19.8282391
23073015182,Juazeiro do Norte,2307304,CE,CRAS IV - Palmeirinha,CRAS,"ANTONIO CRUZ MACEDO, 0 - PALMEIRINHA, Juazeiro do Norte - CE, 63180000",88988227746,15/06/2010,MDS,Google,-39.3437471,-7.228048399999999
31717015517,Virgínia,3171709,MG,CRAS CENTRO DE REFERÊNCIA DE ASSISTÊNCIA SOCIAL,CRAS,"ANTONIO DA COSTA PINTO, 257 - CENTRO, Virgínia - MG, 37465000",3533731437,01/07/2010,MDS,Google,-45.091685,-22.3319009
35041006690,Atibaia,3504107,SP,CRAS PORTÃO,CRAS,"ANTONIO DA CUNHA LEITE, 1895 - PORTÃO, Atibaia - SP, 12948110",1144169183,01/09/2008,MDS,Google,-46.5944484,-23.2173857
31145504623,Carneirinho,3114550,MG,CRAS - Casa da Familia,CRAS,"ANTONIO DAS GRAÇAS  OLIVEIRA, 687 - CENTRO, Carneirinho - MG, 38290000",3434540258,10/03/2005,MDS,Google,-50.6868059,-19.6983474
42015032361,Armazém,4201505,SC,CRAS - CENTRO DE REFERENCIA DE ASSISTÊNCIA SOCIAL -  LUCINEA DA ROSA CORREA,CRAS,"ANTONIO DAVID FILETI, 45 - CENTRO, Armazém - SC, 88740000",4836450471,16/05/2011,MDS,Google,-49.0211225,-28.2252431
17083035771,Goianorte,1708304,TO,CRAS - Centro de Referência de Assistência Social,CRAS,"ANTONIO DE AGUIAR, 0 - SETOR AEROPORTO, Goianorte - TO, 77695000",6334241103,26/03/2012,MDS,Google,-48.40505719999999,-10.7093354
35498030459,São José do Rio Preto,3549805,SP,CRAS CENTRO,CRAS,"ANTONIO DE GODOY, 3243 - CENTRO, São José do Rio Preto - SP, 15055000",1732153300,02/08/2010,MDS,Google,-49.3979309,-20.8357006
15047004559,Moju,1504703,PA,CRAS CENTRO DE REFERENCIA DE ASSISTENCIA SOCIAL- PEDREIRA,CRAS,"ANTONIO DORNELES DE SOUZA, 21 - PEDREIRA, Moju - PA, 68450000",9137561227,01/05/2007,MDS,Google,-48.7649226,-1.8854457
35186004445,Guariba,3518602,SP,crascohabII,CRAS,"ANTONIO FARIA, 161 - COHAB II, Guariba - SP, 14840000",1632516562,01/02/2007,MDS,Google,-48.240306,-21.3698954
23029002116,Capistrano,2302909,CE,PADRE BERNARDO BOURASSA,CRAS,"ANTONIO FERNANDES BEZERRA, 0 - CENTRO, Capistrano - CE, 62748000",8533261323,01/12/2005,MDS,Google,-38.9012171,-4.4667493
33020506578,Italva,3302056,RJ,CENTRO DE REFERENCIA DE ASSISTÊNCIA SOCIAL,CRAS,"ANTONIO FERREIRA DA FONSECA, 214 - CENTRO, Italva - RJ, 28250000",22998461894,01/01/2000,MDS,Google,-41.6914294,-21.4227227
22077004169,Parnaíba,2207702,PI,CRAS SÃO VICENTE DE PAULA,CRAS,"ANTONIO FIRMINO DA CRUZ, 400 - SÃO VICENTE DE PAULA, Parnaíba - PI, 64216140",8633227936,01/12/2005,MDS,Google,-41.7728136,-2.9296568
31564515224,Rosário da Limeira,3156452,MG,CRAS Geraldo Lucas de Freitas,CRAS,"ANTONIO FORTUNATO ARENA, 105 - vital, Rosário da Limeira - MG, 36878000",3237231414,28/12/2010,MDS,Google,-42.50970299999999,-20.9785414
41023031307,Balsa Nova,4102307,PR,CRAS BUGRE,CRAS,"ANTONIO GEQUELIM, 36 - BUGRE, Balsa Nova - PR, 83650000",4136371507,06/12/2010,MDS,Google,-49.6251514,-25.4987949
24080020068,Mossoró,2408003,RN,CRAS BOM JESUS,CRAS,"ANTONIO GERALDO MEDEIRO, 1 - BOM JESUS, Mossoró - RN, 59633000",8433154825,01/08/2010,MDS,Google,-37.3523042,-5.2260852
29265002924,Ribeira do Amparo,2926509,BA,CENTRO DE REFERENCIA DE ASSISTENCIA SOCIAL - CRAS AMPARENSE,CRAS,"ANTONIO GERMANO DE SANTANA, 10 - CENTRO, Ribeira do Amparo - BA, 48440000",75999077396,01/05/2005,MDS,Google,-38.3587174,-10.9563935
35111039245,Catanduva,3511102,SP,CRAS NOSSO TETO,CRAS,"ANTONIO GIROL, 1335 - NOSSO TETO, Catanduva - SP, 15807000",1735211005,28/05/2019,MDS,Google,-48.9473405,-21.1275794
23132501634,Tarrafas,2313252,CE,CRAS SEJEFREDO ALVES DA COSTA,CRAS,"ANTONIO GONÇALVES VALENÇA, 153 - CENTRO, Tarrafas - CE, 63145000",8835491026,01/11/2005,MDS,Google,-40.2727637,-10.5702021
43036732607,Campestre da Serra,4303673,RS,CRAS  Centro de Referencia de Assistência Social de Campestre da Serra/RS,CRAS,"ANTONIO GOZZI, 136 - Centro, Campestre da Serra - RS, 95255000",5432351255,12/06/2009,MDS,Google,-51.0937418,-28.7972206
35263033499,Lagoinha,3526308,SP,CRAS,CRAS,"ANTONIO JOSE RIBEIRO, 0 - CENTRO, Lagoinha - SP, 12130000",1236471155,16/08/2011,MDS,Google,-45.190516,-23.0908713
51079500723,Tangará da Serra,5107958,MT,CRAS 2º SETOR,CRAS,"ANTONIO JOSÉ DA SILVA ESQUINA COM A 56, 0 - JARDIM VILA ESMERALDA, Tangará da Serra - MT, 78300000",65984028087,01/08/2005,MDS,Google,-57.5253245,-14.63108
22095015221,Santo Inácio do Piauí,2209500,PI,CRAS -CENTRO DE REFERENCIA DA ASSISTENCIA SOCIAL,CRAS,"ANTONIO JOSÉ DA SILVA, 1 - CARNAUBINHA, Santo Inácio do Piauí - PI, 64560000",89994167229,05/12/2009,MDS,Google,-41.9160056,-7.4254638
26030037617,Cabrobó,2603009,PE,CRAS JÚLIO JOAQUIM DOS SANTOS,CRAS,"ANTONIO JOSÉ, 139 - Alto da Temperatura, Cabrobó - PE, 56180000",8738751838,10/09/2017,MDS,Google,-39.4035876,-8.455767999999999
51030501491,Cláudia,5103056,MT,CRAS CLAUDIA,CRAS,"ANTONIO JOÃO RIBEIRO, 754 - CENTRO, Cláudia - MT, 78540000",6635462659,01/09/2004,MDS,Google,-54.8811421,-11.5150313
33049006787,São Gonçalo,3304904,RJ,CRAS ITAOCA,CRAS,"ANTONIO LEONCIO, 33 - ITAOCA, São Gonçalo - RJ, 24471400",2126078649,01/03/2007,MDS,Google,-43.0560378,-22.7750105
42046015423,Criciúma,4204608,SC,CRAS Renascer,CRAS,"ANTONIO LIMA, 0 - Renascer, Criciúma - SC, 88160005",4834397406,01/02/2009,MDS,Google,-49.35984250000001,-28.7116641
25059000162,Emas,2505907,PB,CRAS BEATRIZ MARIA DA CONCEIÇÃO ( BEATA),CRAS,"ANTONIO LOPES DA SILVA, 102 - CENTRO, Emas - PB, 58763000",8334261128,01/07/2004,MDS,Google,-37.7144098,-7.1060652
35498001341,São José do Rio Preto,3549805,SP,CRAS VILA TONINHO,CRAS,"ANTONIO LOPES DOS SANTOS, 435 - VILA TONINHO, São José do Rio Preto - SP, 15077200",1732181811,02/02/2007,MDS,Google,-49.33940519999999,-20.8476565
35200030095,Igaraçu do Tietê,3520004,SP,CRAS - ESPAÇO DA FAMÍLIA,CRAS,"ANTONIO LOSSURDO, 150 - VILA MANOEL RAYES, Igaraçu do Tietê - SP, 17350000",1436441850,15/12/2010,MDS,Google,-48.550809,-22.5103862
23015001794,Arneiroz,2301505,CE,CRAS ARNEIROZ,CRAS,"ANTONIO LOUREIRO LINO, 49 - CENTRO, Arneiroz - CE, 63670000",8834191163,01/07/2005,MDS,Google,-40.16003,-6.3229589
52106004944,Itaguaru,5210604,GO,CRAS CENTRO DE REFERENCIA DA ASSISTENCIA SOCIAL DONA LAZARINDA,CRAS,"ANTONIO LOURENÇO DE SA, 0 - CENTRO, Itaguaru - GO, 76660000",6233981350,01/06/2008,MDS,Google,-49.6342035,-15.7608843
33010030245,Campos dos Goytacazes,3301009,RJ,CRAS TRAVESSÃO,CRAS,"ANTONIO LUIZ DA SILVEIRA, 482 - TRAVESSÃO DE CAMPOS, Campos dos Goytacazes - RJ, 28175000",22981751990,21/07/2010,MDS,Google,-41.311956,-21.609638
27051003977,Matriz de Camaragibe,2705101,AL,CRAS - Centro de Referência da Assistência Social,CRAS,"ANTONIO MANOEL DOS SANTOS, 0 - CENTRO, Matriz de Camaragibe - AL, 57910000",82991780354,21/09/2007,MDS,Google,-35.5246231,-9.154797
25093301632,Matinhas,2509339,PB,CRAS - CENTRO DE REFERÊNCIA DE ASSISTÊNCIA SOCIAL,CRAS,"ANTONIO MARIZ, 0 - Centro, Matinhas - PB, 58128000",8336371001,03/06/2007,MDS,Google,-35.77085539999999,-7.122990799999999
23107020289,Pentecoste,2310704,CE,CRAS JOSE VALDIR AGUIAR,CRAS,"ANTONIO MARTINS BANDEIRA, 718 - ACAMPAMENTO, Pentecoste - CE, 62640000",8533522613,01/10/2010,MDS,Google,-39.2727217,-3.7943356
28035020154,Lagarto,2803500,SE,CRAS NELSON BATISTA DOS SANTOS,CRAS,"ANTONIO MARTINS DE MENEZES, 93 - COLÔNIA TREZE, Lagarto - SE, 49400000",7936422096,11/02/2010,MDS,Google,-37.5499577,-10.9857084
35155003878,Fernandópolis,3515509,SP,CRAS RECANTO DOS OITIS,CRAS,"ANTONIO MASCHIO, 69 - CONJUNTO HABITACIONAL ANTONIO MARIN, Fernandópolis - SP, 15600000",1734425041,01/12/2007,MDS,Google,-50.2265508,-20.280186
22024501331,Capitão Gervásio Oliveira,2202455,PI,CRAS CENTRO DE REFERÊNCIA DA ASSISTÊNCIA SOCIAL,CRAS,"ANTONIO MENDES DE SOUSA, 0 - CENTRO, Capitão Gervásio Oliveira - PI, 64763000",89994271047,01/01/2007,MDS,Google,-41.8185716,-8.4897064
23139004106,Uruoca,2313906,CE,CRAS ANA GARCÊS ROCHA,CRAS,"ANTONIO MOREIRA, 639 - CENTRO, Uruoca - CE, 62460000",8836481078,01/10/2005,MDS,Google,-40.5567109,-3.3139556
35544002679,Terra Roxa,3554409,SP,CRAS Centro de Referencia da Assistencia Social,CRAS,"ANTONIO MÔNACO, 4 - JARDIM NABIA KEYDI BONEMER, Terra Roxa - SP, 14745000",1733953039,01/01/2007,MDS,Google,-48.33896439999999,-20.7697246
29280020500,Santaluz,2928000,BA,CRAS DE PEREIRA,CRAS,"ANTONIO NOLASCO, 0 - CENTRO, Santaluz - BA, 48880000",7532652176,01/07/2010,MDS,Google,-39.8577252,-11.3138487
41127020596,Jataizinho,4112702,PR,CRAS Espaço Família,CRAS,"ANTONIO PAVÃO, 15 - JARDIM PARAÍSO, Jataizinho - PR, 86210000",4332592207,01/01/2010,MDS,Google,-50.9741485,-23.2569645
41071203638,Diamante do Sul,4107124,PR,casa das familias,CRAS,"ANTONIO PEDRO VICENTE, 0 - CENTRO, Diamante do Sul - PR, 85408000",4532301014,01/08/2005,MDS,Google,-52.7241914,-24.9962725
31193004762,Coromandel,3119302,MG,CRAS -,CRAS,"ANTONIO PENA, 59 - BRASIL NOVO, Coromandel - MG, 38550000",3438413731,30/03/2009,MDS,Google,-47.2105814,-18.4981697
29319002918,Tucano,2931905,BA,CRAS CENTRO DE REFERÊNCIA DE ASSISTÊNCIA SOCIAL - JORRO,CRAS,"ANTONIO PENEDO FILHO, 30 - JORRO, Tucano - BA, 48793000",7591831297,14/11/2005,MDS,Google,-38.7620969,-10.9633852
12004001495,Rio Branco,1200401,AC,CRAS TANCREDO NEVES,CRAS,"ANTONIO PESSOA DE JUCÁ, 810 - TANCREDO NEVES, Rio Branco - AC, 69918010",6832281334,28/10/2010,MDS,Google,-67.8349491,-9.9291485
31365505003,José Raydan,3136553,MG,CRAS  CASA DAS FAMÍLIAS,CRAS,"ANTONIO PINTO RIBEIRO, 40 - CENTRO, José Raydan - MG, 39775000",3334319216,01/06/2008,MDS,Google,-42.4964397,-18.2214865
22078003760,Paulistana,2207801,PI,CRAS - CENTRO DE REFERENCIA DA ASSISTENCIA SOCIAL 01,CRAS,"ANTONIO PIO DA COSTA, 0 - LAGOA 1, Paulistana - PI, 64750000",8934871443,01/01/2010,MDS,Google,-41.1326921,-8.1386711
